01:00:02.398;I;$POSMST,Start NMEA Logger,V 0.1.15*06
01:00:02.443;I;$POSMCFG,255,255,255,255,ffff,65535*73
01:00:02.449;A;$SDDPT,8.28,0.00,100.0*56
01:00:00.376;B;$GPGSA,A,3,01,03,08,10,11,14,22,,27,28,32,,1.9,0.9,1.6*34
01:00:02.451;I;$POSMGYR,678,-2648,-6643*57
01:00:02.451;I;$POSMACC,-344,14032,8332*4C
01:00:02.477;A;$SDDBT,27.16,f,8.28,M,4.52,F*05
01:00:02.483;A;$YXMTW,26.65,C*25
01:00:02.487;A;$SDDPT,8.20,0.00,100.0*5E
01:00:02.480;B;$GPGSV,3,1,11,01,56,294,45,03,24,230,44,08,59,180,32,,1.9,0.9,1.6*34
01:00:02.497;B;$GPGSV,3,1,11,01,56,294,44,03,24,230,44,08,59,180,47,10,22,054,42*7A
01:00:02.643;B;$GPGSV,3,2,11,11,72,291,45,14,39,117,48,22,47,229,46,24,00,016,00*7B
01:00:02.790;B;$GPGSV,3,3,11,27,24,155,47,28,23,303,40,32,40,079,48,,,,*40
01:00:02.918;B;$PGRME,3.5,M,6.3,M,7.2,M*28
01:00:02.978;B;$GPGLL,4721.168,N,00832.211,E,141856,A*21
01:00:03.067;B;$PGRMZ,1346,f,3*2B
01:00:03.110;B;$PGRMM,WGS 84*06
01:00:03.147;B;$GPBOD,,T,,M,,*47
01:00:02.490;A;$SDDBT,26.90,f,8.20,M$SDDPT,8.02,0.00,100.0*5E
01:00:03.227;B;$GPRTE,1,1,c,0*07
01:00:03.229;A;$SDDBT,26.31,f,8.02,M,4.38,F*05
01:00:03.307;A;$YXMTW,26.65,C*25
01:00:03.450;I;$POSMGYR,223,2259,-1708*7D
01:00:03.450;I;$POSMACC,656,13424,10492*57
01:00:04.028;B;$GPRMC,141857,A,4721.168,N,00832.211,E,001.0,012.7,110916,000.2,E*75
01:00:04.174;B;$GPRMB,A,,,,,,,,,,,,V*71
01:00:04.166;A;$SDDPT,7.77,0.00,100.0*53
01:00:04.232;A;$SDDBT,25.49,f,7.77,M,4.24,F*09
01:00:04.311;A;$YXMTW,26.65,C*25
01:00:04.232;B;$GPGGA,141857,4721.168,N,00832.211,E,1,10,0.9,410.2,M,48.0,M,,*4B
01:00:04.453;I;$POSMGYR,-875,3259,2115*7C
01:00:04.453;I;$POSMACC,152,15792,8288*68
01:00:04.376;B;$GPGSA,A,3,01,03,08,10,11,14,22,,27,28,32,,2.0,0.9,1.7*3F
01:00:04.497;B;$GPGSV,3,1,11,01,56,294,43,03,24,230,43,08,59,180,47,10,22,054,42*7A
01:00:04.642;B;$GPGSV,3,2,11,11,72,291,45,14,39,117,48,22,47,229,46,24,00,016,00*7B
01:00:04.791;B;$GPGSV,3,3,11,27,24,155,47,28,23,302,38,32,40,079,47,,,,*41
01:00:04.918;B;$PGRME,3.5,M,6.3,M,7.2,M*28
01:00:04.978;B;$GPGLL,4721.169,N,00832.210,E,141858,A*2F
01:00:05.070;B;$PGRMZ,1345,f,3*28
01:00:05.111;B;$PGRMM,WGS 84*06
01:00:05.147;B;$GPBOD,,T,,M,,*47
01:00:05.163;A;$SDDPT,7.63,0.00,100.0*56
01:00:05.229;B;$GPRTE,1,1,c,0*07
01:00:05.227;A;$SDDBT,25.03,f,7.63,M,4.17,F*02
01:00:05.306;A;$YXMTW,26.65,C*25
01:00:05.454;I;$POSMGYR,592,-539,3205*49
01:00:05.454;I;$POSMACC,-1000,13924,10316*48
01:00:06.030;B;$GPRMC,141859,A,4721.169,N,00832.210,E,001.1,012.7,110916,000.2,E*7A
01:00:06.166;A;$SDDPT,7.45,0.00,100.0*52
01:00:06.178;B;$GPRMB,A,,,,,,,,,,,,V*71
01:00:06.233;A;$SDDBT,24.44,f,7.45,M,4.07,F*05
01:00:06.308;A;$YXMTW,26.66,C*26
01:00:06.235;B;$GPGGA,141859,4721.169,N,00832.210,E,1,10,1.0,410.0,M,48.0,M,,*4F
01:00:06.454;I;$POSMGYR,-1478,-3913,-416*7D
01:00:06.454;I;$POSMACC,248,14604,8180*64
01:00:06.375;B;$GPGSA,A,3,01,03,08,10,11,14,22,,27,28,32,,2.0,1.0,1.7*37
01:00:06.498;B;$GPGSV,3,1,11,01,56,294,45,03,24,230,44,08,59,180,46,10,22,054,43*7B
01:00:06.644;B;$GPGSV,3,2,11,11,72,291,45,14,39,117,48,22,47,229,45,24,00,016,00*78
01:00:06.792;B;$GPGSV,3,3,11,27,24,155,46,28,23,302,39,32,40,079,48,,,,*4E
01:00:06.918;B;$PGRME,3.5,M,6.3,M,7.2,M*28
01:00:06.981;B;$GPGLL,4721.169,N,00832.210,E,141900,A*23
01:00:07.069;B;$PGRMZ,1345,f,3*28
01:00:07.110;B;$PGRMM,WGS 84*06
01:00:07.149;B;$GPBOD,,T,,M,,*47
01:00:07.169;A;$SDDPT,7.15,0.00,100.0*57
01:00:07.231;B;$GPRTE,1,1,c,0*07
01:00:07.233;A;$SDDBT,23.46,f,7.15,M,3.91,F*0D
01:00:07.310;A;$YXMTW,26.67,C*27
01:00:07.455;I;$POSMGYR,344,4141,-590*43
01:00:07.455;I;$POSMACC,-356,11952,10440*7E
01:00:08.031;B;$GPRMC,141901,A,4721.169,N,00832.209,E,001.1,012.7,110916,000.2,E*7E
01:00:08.164;A;$SDDPT,6.72,0.00,100.0*57
01:00:08.178;B;$GPRMB,A,,,,,,,,,,,,V*71
01:00:08.228;A;$SDDBT,22.05,f,6.72,M,3.67,F*02
01:00:08.308;A;$YXMTW,26.67,C*27
01:00:08.233;B;$GPGGA,141902,4721.169,N,00832.209,E,1,10,0.9,409.9,M,48.0,M,,*41
01:00:08.456;I;$POSMGYR,889,-11214,-7457*6E
01:00:08.456;I;$POSMACC,164,13936,7784*6D
01:00:08.372;B;$GPGSA,A,3,01,03,08,10,11,14,22,,27,28,32,,1.8,0.9,1.6*35
01:00:08.499;B;$GPGSV,3,1,11,01,56,294,45,03,24,230,44,08,59,180,46,10,22,054,44*7C
01:00:08.643;B;$GPGSV,3,2,11,11,72,291,45,14,39,117,48,22,47,229,44,24,00,016,00*79
01:00:08.788;B;$GPGSV,3,3,11,27,24,155,45,28,23,302,40,32,40,079,49,,,,*42
01:00:08.918;B;$PGRME,3.5,M,6.3,M,7.2,M*28
01:00:08.978;B;$GPGLL,4721.169,N,00832.209,E,141902,A*29
01:00:09.067;B;$PGRMZ,1345,f,3*28
01:00:09.110;B;$PGRMM,WGS 84*06
01:00:09.146;B;$GPBOD,,T,,M,,*47
01:00:09.166;A;$SDDPT,6.46,0.00,100.0*50
01:00:09.239;B;$GPRTE,1,1,c,0*07
01:00:09.232;A;$SDDBT,21.19,f,6.46,M,3.53,F*0C
01:00:09.309;A;$YXMTW,26.68,C*28
01:00:09.458;I;$POSMGYR,-1213,1752,1799*4A
01:00:09.458;I;$POSMACC,-2472,12572,10928*43
01:00:10.032;B;$GPRMC,141903,A,4721.169,N,00832.209,E,001.0,012.7,110916,000.2,E*7D
01:00:10.164;A;$SDDPT,6.55,0.00,100.0*52
01:00:10.180;B;$GPRMB,A,,,,,,,,,,,,V*71
01:00:10.228;A;$SDDBT,21.49,f,6.55,M,3.58,F*00
01:00:10.305;A;$YXMTW,26.68,C*28
01:00:10.235;B;$GPGGA,141904,4721.169,N,00832.209,E,1,10,0.9,409.8,M,48.0,M,,*46
01:00:10.459;I;$POSMGYR,-988,-7402,-2494*7F
01:00:10.459;I;$POSMACC,-396,14444,8236*43
01:00:10.378;B;$GPGSA,A,3,01,03,08,10,11,14,22,,27,28,32,,1.8,0.9,1.6*35
01:00:10.499;B;$GPGSV,3,1,11,01,56,294,46,03,24,230,44,08,59,180,45,10,22,054,44*7C
01:00:10.645;B;$GPGSV,3,2,11,11,72,291,45,14,39,117,48,22,47,229,43,24,00,016,00*7E
01:00:10.790;B;$GPGSV,3,3,11,27,24,155,44,28,23,302,39,32,40,079,50,,,,*45
01:00:10.919;B;$PGRME,3.5,M,6.3,M,7.2,M*28
01:00:10.980;B;$GPGLL,4721.169,N,00832.208,E,141904,A*2E
01:00:11.070;B;$PGRMZ,1345,f,3*28
01:00:11.111;B;$PGRMM,WGS 84*06
01:00:11.150;B;$GPBOD,,T,,M,,*47
01:00:11.165;A;$SDDPT,6.34,0.00,100.0*55
01:00:11.235;B;$GPRTE,1,1,c,0*07
01:00:11.231;A;$SDDBT,20.80,f,6.34,M,3.46,F*0C
01:00:11.309;A;$YXMTW,26.69,C*29
01:00:11.460;I;$POSMGYR,1732,4559,-353*73
01:00:11.460;I;$POSMACC,48,13088,10360*66
01:00:12.034;B;$GPRMC,141905,A,4721.169,N,00832.208,E,001.0,012.7,110916,000.2,E*7A
01:00:12.168;A;$SDDPT,6.04,0.00,100.0*56
01:00:12.182;B;$GPRMB,A,,,,,,,,,,,,V*71
01:00:12.232;A;$SDDBT,19.81,f,6.04,M,3.30,F*05
01:00:12.310;A;$YXMTW,26.69,C*29
01:00:12.241;B;$GPGGA,141905,4721.170,N,00832.208,E,1,10,0.9,409.9,M,48.0,M,,*4F
01:00:12.461;I;$POSMGYR,230,-2774,-206*62
01:00:12.461;I;$POSMACC,-452,13712,8332*4E
01:00:12.382;B;$GPGSA,A,3,01,03,08,10,11,14,22,,27,28,32,,1.8,0.9,1.6*35
01:00:12.505;B;$GPGSV,3,1,11,01,56,294,47,03,24,230,42,08,59,180,46,10,22,054,45*79
01:00:12.653;B;$GPGSV,3,2,11,11,72,291,45,14,39,117,48,22,47,229,43,24,00,016,00*7E
01:00:12.801;B;$GPGSV,3,3,11,27,24,155,42,28,23,302,40,32,40,079,51,,,,*4C
01:00:12.926;B;$PGRME,3.5,M,6.3,M,7.2,M*28
01:00:12.987;B;$GPGLL,4721.169,N,00832.207,E,141906,A*23
01:00:13.076;B;$PGRMZ,1345,f,3*28
01:00:13.119;B;$PGRMM,WGS 84*06
01:00:13.156;B;$GPBOD,,T,,M,,*47
01:00:13.164;A;$SDDPT,6.12,0.00,100.0*51
01:00:13.237;B;$GPRTE,1,1,c,0*07
01:00:13.229;A;$SDDBT,20.08,f,6.12,M,3.34,F*0D
01:00:13.305;A;$YXMTW,26.69,C*29
01:00:13.462;I;$POSMGYR,3332,-1311,-1151*66
01:00:13.462;I;$POSMACC,1784,13528,10428*64
01:00:14.036;B;$GPRMC,141907,A,4721.169,N,00832.207,E,001.0,012.7,110916,000.2,E*77
01:00:14.167;A;$SDDPT,5.88,0.00,100.0*51
01:00:14.185;B;$GPRMB,A,,,,,,,,,,,,V*71
01:00:14.230;A;$SDDBT,19.29,f,5.88,M,3.21,F*00
01:00:14.308;A;$YXMTW,26.69,C*29
01:00:14.238;B;$GPGGA,141908,4721.169,N,00832.207,E,1,10,0.9,409.8,M,48.0,M,,*44
01:00:14.465;I;$POSMGYR,1308,1086,1159*68
01:00:14.465;I;$POSMACC,-696,13604,8752*40
01:00:14.379;B;$GPGSA,A,3,01,03,08,10,11,14,22,,27,28,32,,1.8,0.9,1.6*35
01:00:14.503;B;$GPGSV,3,1,11,01,56,294,46,03,24,230,44,08,59,180,46,10,22,054,45*7E
01:00:14.649;B;$GPGSV,3,2,11,11,72,291,45,14,39,117,48,22,47,229,42,24,00,016,00*7F
01:00:14.795;B;$GPGSV,3,3,11,27,24,155,40,28,23,302,39,32,40,079,51,,,,*40
01:00:14.924;B;$PGRME,3.5,M,6.3,M,7.2,M*28
01:00:14.985;B;$GPGLL,4721.169,N,00832.207,E,141908,A*2D
01:00:15.074;B;$PGRMZ,1344,f,3*29
01:00:15.114;B;$PGRMM,WGS 84*06
01:00:15.153;B;$GPBOD,,T,,M,,*47
01:00:15.162;A;$SDDPT,5.67,0.00,100.0*50
01:00:15.243;B;$GPRTE,1,1,c,0*07
01:00:15.227;A;$SDDBT,18.60,f,5.67,M,3.10,F*0F
01:00:15.304;A;$YXMTW,26.70,C*21
01:00:15.465;I;$POSMGYR,-1109,1056,-1226*6D
01:00:15.465;I;$POSMACC,168,14156,10152*53
01:00:16.038;B;$GPRMC,141909,A,4721.169,N,00832.206,E,001.0,012.7,110916,000.2,E*78
01:00:16.165;A;$SDDPT,5.68,0.00,100.0*5F
01:00:16.187;B;$GPRMB,A,,,,,,,,,,,,V*71
01:00:16.230;A;$SDDBT,18.63,f,5.68,M,3.10,F*03
01:00:16.308;A;$YXMTW,26.69,C*29
01:00:16.240;B;$GPGGA,141910,4721.169,N,00832.206,E,1,10,0.9,409.6,M,48.0,M,,*42
01:00:16.467;I;$POSMGYR,-1786,-809,347*68
01:00:16.467;I;$POSMACC,-408,14832,8392*41
01:00:16.381;B;$GPGSA,A,3,01,03,08,10,11,14,22,,27,28,32,,1.8,0.9,1.6*35
01:00:16.505;B;$GPGSV,3,1,11,01,56,294,46,03,24,230,45,08,59,180,47,10,22,054,45*7E
01:00:16.651;B;$GPGSV,3,2,11,11,72,291,46,14,39,117,48,22,47,229,42,24,00,016,00*7C
01:00:16.797;B;$GPGSV,3,3,11,27,24,155,39,28,23,302,39,32,40,079,51,,,,*4E
01:00:16.925;B;$PGRME,3.5,M,6.3,M,7.2,M*28
01:00:16.987;B;$GPGLL,4721.169,N,00832.206,E,141910,A*25
01:00:17.077;B;$PGRMZ,1344,f,3*29
01:00:17.118;B;$PGRMM,WGS 84*06
01:00:17.156;B;$GPBOD,,T,,M,,*47
01:00:17.167;A;$SDDPT,5.53,0.00,100.0*57
01:00:17.240;B;$GPRTE,1,1,c,0*07
01:00:17.233;A;$SDDBT,18.14,f,5.53,M,3.02,F*08
01:00:17.310;A;$YXMTW,26.70,C*21
01:00:17.469;I;$POSMGYR,823,-3080,356*4E
01:00:17.469;I;$POSMACC,-172,15540,8648*42
01:00:18.040;B;$GPRMC,141911,A,4721.169,N,00832.205,E,001.1,012.7,110916,000.2,E*73
01:00:18.163;A;$SDDPT,5.07,0.00,100.0*56
01:00:18.189;B;$GPRMB,A,,,,,,,,,,,,V*71
01:00:18.228;A;$SDDBT,16.63,f,5.07,M,2.77,F*04
01:00:18.306;A;$YXMTW,26.69,C*29
01:00:18.247;B;$GPGGA,141911,4721.169,N,00832.205,E,1,10,0.9,409.5,M,48.0,M,,*43
01:00:18.471;I;$POSMGYR,-829,-89,-190*46
01:00:18.471;I;$POSMACC,-32,15560,8656*7A
01:00:18.390;B;$GPGSA,A,3,01,03,08,10,11,14,22,,27,28,32,,1.8,0.9,1.6*35
01:00:18.513;B;$GPGSV,3,1,11,01,56,294,46,03,24,230,45,08,59,180,47,10,22,054,44*7F
01:00:18.659;B;$GPGSV,3,2,11,11,72,291,46,14,39,117,48,22,47,229,42,24,00,016,00*7C
01:00:18.805;B;$GPGSV,3,3,11,27,24,155,40,28,23,302,41,32,40,079,51,,,,*4F
01:00:18.935;B;$PGRME,3.5,M,6.3,M,7.2,M*28
01:00:18.994;B;$GPGLL,4721.169,N,00832.205,E,141912,A*24
01:00:19.085;B;$PGRMZ,1343,f,3*2E
01:00:19.126;B;$PGRMM,WGS 84*06
01:00:19.164;B;$GPBOD,,T,,M,,*47
01:00:19.166;A;$SDDPT,5.11,0.00,100.0*51
01:00:19.246;B;$GPRTE,1,1,c,0*07
01:00:19.230;A;$SDDBT,16.76,f,5.11,M,2.79,F*09
01:00:19.309;A;$YXMTW,26.70,C*21
01:00:19.473;I;$POSMGYR,-183,-642,-4561*40
01:00:19.473;I;$POSMACC,316,15260,7976*67
01:00:20.041;B;$GPRMC,141913,A,4721.169,N,00832.204,E,001.2,012.7,110916,000.2,E*73
01:00:20.162;A;$SDDPT,4.93,0.00,100.0*5A
01:00:20.192;B;$GPRMB,A,,,,,,,,,,,,V*71
01:00:20.226;A;$SDDBT,16.17,f,4.93,M,2.69,F*04
01:00:20.305;A;$YXMTW,26.69,C*29
01:00:20.249;B;$GPGGA,141913,4721.169,N,00832.204,E,1,10,0.9,409.5,M,48.0,M,,*40
01:00:20.474;I;$POSMGYR,-197,203,-1039*64
01:00:20.474;I;$POSMACC,36,11640,10820*60
01:00:20.389;B;$GPGSA,A,3,01,03,08,10,11,14,22,,27,28,32,,1.8,0.9,1.6*35
01:00:20.512;B;$GPGSV,3,1,11,01,56,294,46,03,24,230,45,08,59,180,46,10,22,054,44*7E
01:00:20.660;B;$GPGSV,3,2,11,11,72,291,45,14,39,117,49,22,47,229,42,24,00,016,00*7E
01:00:20.806;B;$GPGSV,3,3,11,27,24,155,41,28,23,302,42,32,40,078,51,,,,*4C
01:00:20.934;B;$PGRME,3.5,M,6.3,M,7.2,M*28
01:00:20.995;B;$GPGLL,4721.169,N,00832.203,E,141914,A*24
01:00:21.084;B;$PGRMZ,1343,f,3*2E
01:00:21.127;B;$PGRMM,WGS 84*06
01:00:21.164;B;$GPBOD,,T,,M,,*47
01:00:21.166;A;$SDDPT,4.83,0.00,100.0*5B
01:00:21.242;B;$GPRTE,1,1,c,0*07
01:00:21.229;A;$SDDBT,15.84,f,4.83,M,2.64,F*01
01:00:21.308;A;$YXMTW,26.70,C*21
01:00:21.476;I;$POSMGYR,-2916,-6493,-3773*48
01:00:21.476;I;$POSMACC,-804,16024,6640*48
01:00:22.045;B;$GPRMC,141915,A,4721.169,N,00832.203,E,001.2,012.7,110916,000.2,E*72
01:00:22.168;A;$SDDPT,4.51,0.00,100.0*54
01:00:22.191;B;$GPRMB,A,,,,,,,,,,,,V*71
01:00:22.232;A;$SDDBT,14.79,f,4.51,M,2.46,F*0D
01:00:22.309;A;$YXMTW,26.70,C*21
01:00:22.246;B;$GPGGA,141916,4721.169,N,00832.203,E,1,10,0.9,409.4,M,48.0,M,,*43
01:00:22.476;I;$POSMGYR,-1843,-1341,-95*49
01:00:22.476;I;$POSMACC,800,11932,10392*55
01:00:22.386;B;$GPGSA,A,3,01,03,08,10,11,14,22,,27,28,32,,1.8,0.9,1.6*35
01:00:22.509;B;$GPGSV,3,1,11,01,56,294,47,03,24,230,45,08,59,180,46,10,22,054,44*7F
01:00:22.656;B;$GPGSV,3,2,11,11,72,291,45,14,39,117,49,22,47,229,42,24,00,016,00*7E
01:00:22.804;B;$GPGSV,3,3,11,27,24,155,41,28,23,302,42,32,40,078,50,,,,*4D
01:00:22.930;B;$PGRME,3.5,M,6.3,M,7.2,M*28
01:00:22.990;B;$GPGLL,4721.169,N,00832.202,E,141916,A*27
01:00:23.081;B;$PGRMZ,1343,f,3*2E
01:00:23.123;B;$PGRMM,WGS 84*06
01:00:23.160;B;$GPBOD,,T,,M,,*47
01:00:23.162;A;$SDDPT,4.29,0.00,100.0*5B
01:00:23.248;B;$GPRTE,1,1,c,0*07
01:00:23.229;A;$SDDBT,14.07,f,4.29,M,2.34,F*0E
01:00:23.306;A;$YXMTW,26.70,C*21
01:00:23.478;I;$POSMGYR,-1514,-5381,-3745*47
01:00:23.478;I;$POSMACC,-564,12948,9432*4C
01:00:24.047;B;$GPRMC,141917,A,4721.169,N,00832.202,E,001.2,012.7,110916,000.2,E*71
01:00:24.165;A;$SDDPT,4.35,0.00,100.0*56
01:00:24.193;B;$GPRMB,A,,,,,,,,,,,,V*71
01:00:24.229;A;$SDDBT,14.27,f,4.35,M,2.37,F*02
01:00:24.310;A;$YXMTW,26.70,C*21
01:00:24.253;B;$GPGGA,141917,4721.169,N,00832.202,E,1,10,0.9,409.3,M,48.0,M,,*44
01:00:24.480;I;$POSMGYR,-4034,-1589,-1012*48
01:00:24.480;I;$POSMACC,48,15228,8824*5A
01:00:24.394;B;$GPGSA,A,3,01,03,08,10,11,14,22,,27,28,32,,1.8,0.9,1.6*35
01:00:24.518;B;$GPGSV,3,1,11,01,56,295,47,03,24,230,44,08,59,180,45,10,22,054,44*7C
01:00:24.664;B;$GPGSV,3,2,11,11,72,291,45,14,39,117,49,22,47,229,43,24,00,016,00*7F
01:00:24.810;B;$GPGSV,3,3,11,27,24,155,43,28,23,302,41,32,40,078,50,,,,*4C
01:00:24.940;B;$PGRME,3.5,M,6.3,M,7.2,M*28
01:00:24.998;B;$GPGLL,4721.169,N,00832.202,E,141918,A*29
01:00:25.090;B;$PGRMZ,1343,f,3*2E
01:00:25.131;B;$PGRMM,WGS 84*06
01:00:25.168;B;$GPBOD,,T,,M,,*47
01:00:25.161;A;$SDDPT,4.29,0.00,100.0*5B
01:00:25.252;B;$GPRTE,1,1,c,0*07
01:00:25.226;A;$SDDBT,14.07,f,4.29,M,2.34,F*0E
01:00:25.304;A;$YXMTW,26.71,C*20
01:00:25.482;I;$POSMGYR,2395,693,737*63
01:00:25.482;I;$POSMACC,4,12792,10012*55
01:00:26.048;B;$GPRMC,141919,A,4721.169,N,00832.201,E,001.2,012.7,110916,000.2,E*7C
01:00:26.165;A;$SDDPT,3.81,0.00,100.0*5E
01:00:26.199;B;$GPRMB,A,,,,,,,,,,,,V*71
01:00:26.228;A;$SDDBT,12.50,f,3.81,M,2.08,F*00
01:00:26.308;A;$YXMTW,26.71,C*20
01:00:26.254;B;$GPGGA,141919,4721.169,N,00832.201,E,1,10,0.9,409.4,M,48.0,M,,*4E
01:00:26.484;I;$POSMGYR,-3476,3390,558*7B
01:00:26.484;I;$POSMACC,-492,14660,8300*40
01:00:26.396;B;$GPGSA,A,3,01,03,08,10,11,14,22,,27,28,32,,1.8,0.9,1.6*35
01:00:26.519;B;$GPGSV,3,1,11,01,56,295,47,03,24,230,45,08,59,180,45,10,22,054,44*7D
01:00:26.667;B;$GPGSV,3,2,11,11,72,291,45,14,39,117,49,22,47,229,43,24,00,016,00*7F
01:00:26.813;B;$GPGSV,3,3,11,27,24,155,44,28,23,302,41,32,40,078,50,,,,*4B
01:00:26.939;B;$PGRME,3.5,M,6.3,M,7.2,M*28
01:00:26.999;B;$GPGLL,4721.169,N,00832.201,E,141920,A*21
01:00:27.090;B;$PGRMZ,1343,f,3*2E
01:00:27.131;B;$PGRMM,WGS 84*06
01:00:27.170;B;$GPBOD,,T,,M,,*47
01:00:27.166;A;$SDDPT,3.93,0.00,100.0*5D
01:00:27.254;B;$GPRTE,1,1,c,0*07
01:00:27.232;A;$SDDBT,12.89,f,3.93,M,2.14,F*0A
01:00:27.311;A;$YXMTW,26.72,C*23
01:00:27.485;I;$POSMGYR,573,1519,396*60
01:00:27.485;I;$POSMACC,540,13344,8260*60
01:00:28.049;B;$GPRMC,141921,A,4721.169,N,00832.200,E,001.2,012.7,110916,000.2,E*76
01:00:28.164;A;$SDDPT,3.79,0.00,100.0*59
01:00:28.197;B;$GPRMB,A,,,,,,,,,,,,V*71
01:00:28.227;A;$SDDBT,12.43,f,3.79,M,2.07,F*0A
01:00:28.305;A;$YXMTW,26.73,C*22
01:00:28.255;B;$GPGGA,141921,4721.169,N,00832.200,E,1,10,0.9,409.4,M,48.0,M,,*44
01:00:28.487;I;$POSMGYR,-713,6924,3990*73
01:00:28.487;I;$POSMACC,1132,14812,9344*59
01:00:28.397;B;$GPGSA,A,3,01,03,08,10,11,14,22,,27,28,32,,1.8,0.9,1.6*35
01:00:28.520;B;$GPGSV,3,1,11,01,56,295,47,03,24,230,45,08,59,180,46,10,22,054,45*7F
01:00:28.666;B;$GPGSV,3,2,11,11,72,291,45,14,39,117,49,22,47,229,43,24,00,016,00*7F
01:00:28.812;B;$GPGSV,3,3,11,27,24,155,43,28,23,302,40,32,40,078,50,,,,*4D
01:00:28.941;B;$PGRME,3.5,M,6.2,M,7.2,M*29
01:00:29.001;B;$GPGLL,4721.169,N,00832.200,E,141922,A*22
01:00:29.090;B;$PGRMZ,1343,f,3*2E
01:00:29.133;B;$PGRMM,WGS 84*06
01:00:29.171;B;$GPBOD,,T,,M,,*47
01:00:29.166;A;$SDDPT,4.03,0.00,100.0*53
01:00:29.255;B;$GPRTE,1,1,c,0*07
01:00:29.231;A;$SDDBT,13.22,f,4.03,M,2.20,F*03
01:00:29.307;A;$YXMTW,26.73,C*22
01:00:29.489;I;$POSMGYR,1854,1829,1184*67
01:00:29.489;I;$POSMACC,-812,12244,10356*7A
01:00:30.051;B;$GPRMC,141923,A,4721.169,N,00832.200,E,001.1,012.7,110916,000.2,E*77
01:00:30.160;A;$SDDPT,3.45,0.00,100.0*56
01:00:30.199;B;$GPRMB,A,,,,,,,,,,,,V*71
01:00:30.227;A;$SDDBT,11.32,f,3.45,M,1.88,F*04
01:00:30.306;A;$YXMTW,26.74,C*25
01:00:30.257;B;$GPGGA,141923,4721.169,N,00832.199,E,1,10,0.9,409.3,M,48.0,M,,*42
01:00:30.491;I;$POSMGYR,-1437,-4920,-7929*47
01:00:30.491;I;$POSMACC,924,13908,6500*63
01:00:30.399;B;$GPGSA,A,3,01,03,08,10,11,14,22,,27,28,32,,1.8,0.9,1.6*35
01:00:30.522;B;$GPGSV,3,1,11,01,56,295,47,03,24,230,45,08,59,180,46,10,22,054,45*7F
01:00:30.668;B;$GPGSV,3,2,11,11,72,291,45,14,39,117,49,22,47,229,42,24,00,016,00*7E
01:00:30.814;B;$GPGSV,3,3,11,27,24,155,42,28,23,302,40,32,40,078,51,,,,*4D
01:00:30.944;B;$PGRME,3.5,M,6.2,M,7.2,M*29
01:00:31.002;B;$GPGLL,4721.170,N,00832.199,E,141924,A*2F
01:00:31.091;B;$PGRMZ,1343,f,3*2E
01:00:31.134;B;$PGRMM,WGS 84*06
01:00:31.170;B;$GPBOD,,T,,M,,*47
01:00:31.163;A;$SDDPT,3.45,0.00,100.0*56
01:00:31.256;B;$GPRTE,1,1,c,0*07
01:00:31.228;A;$SDDBT,11.32,f,3.45,M,1.88,F*04
01:00:31.307;A;$YXMTW,26.77,C*26
01:00:31.493;I;$POSMGYR,-2702,-267,1269*59
01:00:31.493;I;$POSMACC,1460,12172,9508*5C
01:00:32.053;B;$GPRMC,141925,A,4721.170,N,00832.199,E,001.1,012.7,110916,000.2,E*7A
01:00:32.166;A;$SDDPT,2.97,0.00,100.0*58
01:00:32.202;B;$GPRMB,A,,,,,,,,,,,,V*71
01:00:32.230;A;$SDDBT,9.74,f,2.97,M,1.62,F*35
01:00:32.306;A;$YXMTW,26.78,C*29
01:00:32.258;B;$GPGGA,141925,4721.170,N,00832.199,E,1,10,0.9,409.3,M,48.0,M,,*4C
01:00:32.495;I;$POSMGYR,909,2317,-2755*7E
01:00:32.495;I;$POSMACC,360,17096,6440*66
01:00:32.401;B;$GPGSA,A,3,01,03,08,10,11,14,22,,27,28,32,,1.8,0.9,1.6*35
01:00:32.524;B;$GPGSV,3,1,11,01,56,295,47,03,25,231,44,08,59,180,45,10,22,054,45*7D
01:00:32.671;B;$GPGSV,3,2,11,11,72,291,45,14,39,117,49,22,47,229,43,24,00,016,00*7F
01:00:32.817;B;$GPGSV,3,3,11,27,24,155,42,28,23,302,41,32,40,078,51,,,,*4C
01:00:32.944;B;$PGRME,3.5,M,6.2,M,7.2,M*29
01:00:33.004;B;$GPGLL,4721.170,N,00832.198,E,141926,A*2C
01:00:33.095;B;$PGRMZ,1343,f,3*2E
01:00:33.136;B;$PGRMM,WGS 84*06
01:00:33.174;B;$GPBOD,,T,,M,,*47
01:00:33.162;A;$SDDPT,2.98,0.00,100.0*57
01:00:33.254;B;$GPRTE,1,1,c,0*07
01:00:33.227;A;$SDDBT,9.77,f,2.98,M,1.62,F*39
01:00:33.304;A;$YXMTW,26.79,C*28
01:00:33.496;I;$POSMGYR,157,256,1574*64
01:00:33.496;I;$POSMACC,-4,12244,10628*79
01:00:34.056;B;$GPRMC,141927,A,4721.170,N,00832.198,E,001.1,012.7,110916,000.2,E*79
01:00:34.165;A;$SDDPT,2.62,0.00,100.0*52
01:00:34.202;B;$GPRMB,A,,,,,,,,,,,,V*71
01:00:34.230;A;$SDDBT,8.59,f,2.62,M,1.43,F*32
01:00:34.305;A;$YXMTW,26.80,C*2E
01:00:34.259;B;$GPGGA,141927,4721.170,N,00832.198,E,1,10,0.9,409.4,M,48.0,M,,*48
01:00:34.498;I;$POSMGYR,-370,-323,-3497*43
01:00:34.498;I;$POSMACC,-108,16028,8344*4E
01:00:34.402;B;$GPGSA,A,3,01,03,08,10,11,14,22,,27,28,32,,1.8,0.9,1.6*35
01:00:34.525;B;$GPGSV,3,1,11,01,56,295,47,03,25,231,45,08,59,180,45,10,22,054,46*7F
01:00:34.670;B;$GPGSV,3,2,11,11,72,291,45,14,39,117,49,22,47,229,41,24,00,016,00*7D
01:00:34.819;B;$GPGSV,3,3,11,27,24,155,40,28,23,302,41,32,40,078,52,,,,*4D
01:00:34.945;B;$PGRME,3.5,M,6.2,M,7.2,M*29
01:00:35.006;B;$GPGLL,4721.170,N,00832.198,E,141928,A*22
01:00:35.097;B;$PGRMZ,1343,f,3*2E
01:00:35.137;B;$PGRMM,WGS 84*06
01:00:35.177;B;$GPBOD,,T,,M,,*47
01:00:35.162;A;$SDDPT,2.68,0.00,100.0*58
01:00:35.257;B;$GPRTE,1,1,c,0*07
01:00:35.226;A;$SDDBT,8.79,f,2.68,M,1.46,F*3F
01:00:35.301;A;$YXMTW,26.80,C*2E
01:00:35.500;I;$POSMGYR,1772,-2300,4134*4C
01:00:35.500;I;$POSMACC,-592,12600,8036*47
01:00:36.058;B;$GPRMC,141929,A,4721.170,N,00832.197,E,001.0,012.7,110916,000.2,E*79
01:00:36.163;A;$SDDPT,2.67,0.00,100.0*57
01:00:36.206;B;$GPRMB,A,,,,,,,,,,,,V*71
01:00:36.230;A;$SDDBT,8.76,f,2.67,M,1.46,F*3F
01:00:36.304;A;$YXMTW,26.81,C*2F
01:00:36.261;B;$GPGGA,141929,4721.170,N,00832.197,E,1,10,0.9,409.5,M,48.0,M,,*48
01:00:36.501;I;$POSMGYR,-908,-1905,-5797*7C
01:00:36.501;I;$POSMACC,780,14412,10384*5F
01:00:36.403;B;$GPGSA,A,3,01,03,08,10,11,14,22,,27,28,32,,1.8,0.9,1.6*35
01:00:36.527;B;$GPGSV,3,1,11,01,56,295,46,03,25,231,45,08,59,180,46,10,22,054,46*7D
01:00:36.672;B;$GPGSV,3,2,11,11,72,291,46,14,39,117,48,22,47,229,42,24,00,016,00*7C
01:00:36.818;B;$GPGSV,3,3,11,27,24,155,40,28,23,302,40,32,40,078,52,,,,*4C
01:00:36.948;B;$PGRME,3.5,M,6.2,M,7.2,M*29
01:00:37.007;B;$GPGLL,4721.170,N,00832.197,E,141930,A*24
01:00:37.098;B;$PGRMZ,1343,f,3*2E
01:00:37.139;B;$PGRMM,WGS 84*06
01:00:37.177;B;$GPBOD,,T,,M,,*47
01:00:37.167;A;$SDDPT,2.55,0.00,100.0*56
01:00:37.259;B;$GPRTE,1,1,c,0*07
01:00:37.230;A;$SDDBT,8.36,f,2.55,M,1.39,F*32
01:00:37.305;A;$YXMTW,26.81,C*2F
01:00:37.504;I;$POSMGYR,-2498,3615,1617*4B
01:00:37.504;I;$POSMACC,-36,12960,8032*71
01:00:38.060;B;$GPRMC,141931,A,4721.170,N,00832.196,E,001.0,012.7,110916,000.2,E*71
01:00:38.162;A;$SDDPT,2.26,0.00,100.0*52
01:00:38.207;B;$GPRMB,A,,,,,,,,,,,,V*71
01:00:38.225;A;$SDDBT,7.41,f,2.26,M,1.23,F*32
01:00:38.303;A;$YXMTW,26.81,C*2F
01:00:38.262;B;$GPGGA,141931,4721.170,N,00832.196,E,1,10,0.9,409.2,M,48.0,M,,*47
01:00:38.506;I;$POSMGYR,-88,782,-1792*51
01:00:38.506;I;$POSMACC,32,17072,8084*5A
01:00:38.405;B;$GPGSA,A,3,01,03,08,10,11,14,22,,27,28,32,,1.8,0.9,1.6*35
01:00:38.528;B;$GPGSV,3,1,11,01,56,295,46,03,25,231,45,08,59,180,46,10,22,054,45*7E
01:00:38.674;B;$GPGSV,3,2,11,11,72,291,46,14,39,117,49,22,47,229,42,24,00,016,00*7D
01:00:38.821;B;$GPGSV,3,3,11,27,24,155,40,28,23,302,41,32,40,078,52,,,,*4D
01:00:38.947;B;$PGRME,3.5,M,6.2,M,7.2,M*29
01:00:39.011;B;$GPGLL,4721.170,N,00832.196,E,141932,A*27
01:00:39.100;B;$PGRMZ,1342,f,3*2F
01:00:39.140;B;$PGRMM,WGS 84*06
01:00:39.179;B;$GPBOD,,T,,M,,*47
01:00:39.164;A;$SDDPT,2.26,0.00,100.0*52
01:00:39.261;B;$GPRTE,1,1,c,0*07
01:00:39.230;A;$SDDBT,7.41,f,2.26,M,1.23,F*32
01:00:39.305;A;$YXMTW,26.81,C*2F
01:00:39.508;I;$POSMGYR,801,476,-2661*43
01:00:39.508;I;$POSMACC,-288,13056,10488*77
01:00:40.060;B;$GPRMC,141933,A,4721.169,N,00832.195,E,001.1,012.7,110916,000.2,E*79
01:00:40.161;A;$SDDPT,2.23,0.00,100.0*57
01:00:40.209;B;$GPRMB,A,,,,,,,,,,,,V*71
01:00:40.225;A;$SDDBT,7.31,f,2.23,M,1.21,F*32
01:00:40.300;A;$YXMTW,26.82,C*2C
01:00:40.268;B;$GPGGA,141933,4721.169,N,00832.195,E,1,10,0.9,409.1,M,48.0,M,,*4D
01:00:40.509;I;$POSMGYR,-3947,-4370,-3611*40
01:00:40.509;I;$POSMACC,564,14468,7196*6D
01:00:40.411;B;$GPGSA,A,3,01,03,08,10,11,14,22,,27,28,32,,1.8,0.9,1.6*35
01:00:40.534;B;$GPGSV,3,1,11,01,56,295,46,03,25,231,45,08,59,180,45,10,22,054,45*7D
01:00:40.679;B;$GPGSV,3,2,11,11,72,291,46,14,39,117,49,22,47,229,43,24,00,016,00*7C
01:00:40.827;B;$GPGSV,3,3,11,27,24,155,43,28,23,302,40,32,40,078,50,,,,*4D
01:00:40.953;B;$PGRME,3.6,M,6.4,M,7.3,M*2D
01:00:41.014;B;$GPGLL,4721.169,N,00832.195,E,141934,A*2A
01:00:41.105;B;$PGRMZ,1342,f,3*2F
01:00:41.146;B;$PGRMM,WGS 84*06
01:00:41.185;B;$GPBOD,,T,,M,,*47
01:00:41.163;A;$SDDPT,1.86,0.00,100.0*5B
01:00:41.228;A;$SDDBT,6.10,f,1.86,M,1.01,F*3E
01:00:41.262;B;$GPRTE,1,1,c,0*07
01:00:41.306;A;$YXMTW,26.83,C*2D
01:00:41.512;I;$POSMGYR,1087,994,-125*40
01:00:41.512;I;$POSMACC,1004,13344,10224*6D
01:00:42.063;B;$GPRMC,141935,A,4721.170,N,00832.194,E,001.2,012.7,110916,000.2,E*75
01:00:42.165;A;$SDDPT,1.80,0.00,100.0*5D
01:00:42.210;B;$GPRMB,A,,,,,,,,,,,,V*71
01:00:42.231;A;$SDDBT,5.90,f,1.80,M,0.98,F*32
01:00:42.311;A;$YXMTW,26.84,C*2A
01:00:42.265;B;$GPGGA,141936,4721.170,N,00832.194,E,1,10,0.9,409.1,M,48.0,M,,*41
01:00:42.515;I;$POSMGYR,1772,-2479,-460*58
01:00:42.515;I;$POSMACC,-788,14460,7776*40
01:00:42.407;B;$GPGSA,A,3,01,03,08,10,11,14,22,,27,28,32,,1.8,0.9,1.6*35
01:00:42.528;B;$GPGSV,3,1,11,01,56,295,46,03,25,231,44,08,59,180,45,10,22,054,45*7C
01:00:42.675;B;$GPGSV,3,2,11,11,72,291,45,14,39,117,49,22,47,229,43,24,00,016,00*7F
01:00:42.820;B;$GPGSV,3,3,11,27,24,155,45,28,23,302,38,32,40,078,50,,,,*44
01:00:42.949;B;$PGRME,3.5,M,6.2,M,7.2,M*29
01:00:43.011;B;$GPGLL,4721.170,N,00832.194,E,141936,A*21
01:00:43.100;B;$PGRMZ,1342,f,3*2F
01:00:43.141;B;$PGRMM,WGS 84*06
01:00:43.180;B;$GPBOD,,T,,M,,*47
01:00:43.162;A;$SDDPT,1.51,0.00,100.0*51
01:00:43.226;A;$SDDBT,4.95,f,1.51,M,0.82,F*31
01:00:43.272;B;$GPRTE,1,1,c,0*07
01:00:43.301;A;$YXMTW,26.86,C*28
01:00:43.516;I;$POSMGYR,1578,2203,-773*77
01:00:43.516;I;$POSMACC,1144,13708,8304*5E
01:00:44.063;B;$GPRMC,141937,A,4721.170,N,00832.193,E,001.1,012.7,110916,000.2,E*73
01:00:44.165;A;$SDDPT,1.57,0.00,100.0*57
01:00:44.212;B;$GPRMB,A,,,,,,,,,,,,V*71
01:00:44.230;A;$SDDBT,5.15,f,1.57,M,0.85,F*39
01:00:44.305;A;$YXMTW,26.87,C*29
01:00:44.267;B;$GPGGA,141938,4721.170,N,00832.193,E,1,10,0.9,409.0,M,48.0,M,,*49
01:00:44.519;I;$POSMGYR,-364,8089,272*43
01:00:44.519;I;$POSMACC,508,13188,9412*6C
01:00:44.406;B;$GPGSA,A,3,01,03,08,10,11,14,22,,27,28,32,,1.8,0.9,1.6*35
01:00:44.532;B;$GPGSV,3,1,11,01,56,295,46,03,25,231,44,08,59,180,45,10,22,054,44*7D
01:00:44.676;B;$GPGSV,3,2,11,11,72,291,44,14,39,117,49,22,47,229,44,24,00,016,00*79
01:00:44.823;B;$GPGSV,3,3,11,27,24,155,46,28,23,302,37,32,40,078,49,,,,*40
01:00:44.950;B;$PGRME,3.5,M,6.2,M,7.2,M*29
01:00:45.010;B;$GPGLL,4721.170,N,00832.193,E,141938,A*28
01:00:45.102;B;$PGRMZ,1342,f,3*2F
01:00:45.143;B;$PGRMM,WGS 84*06
01:00:45.180;B;$GPBOD,,T,,M,,*47
01:00:45.160;A;$SDDPT,1.54,0.00,100.0*54
01:00:45.225;A;$SDDBT,5.05,f,1.54,M,0.84,F*3A
01:00:45.264;B;$GPRTE,1,1,c,0*07
01:00:45.301;A;$YXMTW,26.88,C*26
01:00:45.520;I;$POSMGYR,-4909,3059,-128*51
01:00:45.520;I;$POSMACC,1616,14196,9228*56
01:00:46.066;B;$GPRMC,141939,A,4721.170,N,00832.193,E,001.1,012.7,110916,000.2,E*7D
01:00:46.163;A;$SDDPT,1.63,0.00,100.0*50
01:00:46.215;B;$GPRMB,A,,,,,,,,,,,,V*71
01:00:46.227;A;$SDDBT,5.34,f,1.63,M,0.89,F*31
01:00:46.303;A;$YXMTW,26.89,C*27
01:00:46.271;B;$GPGGA,141939,4721.170,N,00832.193,E,1,10,0.9,408.9,M,48.0,M,,*40
01:00:46.523;I;$POSMGYR,2533,-1880,-1976*6E
01:00:46.523;I;$POSMACC,-640,16272,6440*45
01:00:46.413;B;$GPGSA,A,3,01,03,08,10,11,14,22,,27,28,32,,1.8,0.9,1.6*35
01:00:46.537;B;$GPGSV,3,1,11,01,56,295,46,03,25,231,45,08,59,180,45,10,22,054,44*7C
01:00:46.682;B;$GPGSV,3,2,11,11,72,291,45,14,39,117,49,22,47,229,44,24,00,016,00*78
01:00:46.830;B;$GPGSV,3,3,11,27,24,155,45,28,23,302,39,32,40,078,49,,,,*4D
01:00:46.956;B;$PGRME,3.5,M,6.2,M,7.2,M*29
01:00:47.016;B;$GPGLL,4721.170,N,00832.192,E,141940,A*26
01:00:47.108;B;$PGRMZ,1342,f,3*2F
01:00:47.149;B;$PGRMM,WGS 84*06
01:00:47.187;B;$GPBOD,,T,,M,,*47
01:00:47.166;A;$SDDPT,1.89,0.00,100.0*54
01:00:47.230;A;$SDDBT,6.20,f,1.89,M,1.03,F*30
01:00:47.268;B;$GPRTE,1,1,c,0*07
01:00:47.304;A;$YXMTW,26.89,C*27
01:00:47.525;I;$POSMGYR,-1650,-1640,203*51
01:00:47.525;I;$POSMACC,-40,12780,9976*78
01:00:48.068;B;$GPRMC,141941,A,4721.170,N,00832.191,E,001.2,012.7,110916,000.2,E*73
01:00:48.160;A;$SDDPT,2.31,0.00,100.0*54
01:00:48.217;B;$GPRMB,A,,,,,,,,,,,,V*71
01:00:48.227;A;$SDDBT,7.57,f,2.31,M,1.26,F*36
01:00:48.303;A;$YXMTW,26.90,C*2F
01:00:48.270;B;$GPGGA,141942,4721.171,N,00832.191,E,1,10,0.9,408.9,M,48.0,M,,*4F
01:00:48.526;I;$POSMGYR,-1049,138,3089*78
01:00:48.526;I;$POSMACC,-1512,16220,6656*72
01:00:48.411;B;$GPGSA,A,3,01,03,08,10,11,14,22,,27,28,32,,1.8,0.9,1.6*35
01:00:48.539;B;$GPGSV,3,1,11,01,56,295,47,03,25,231,45,08,59,180,45,10,22,054,44*7D
01:00:48.680;B;$GPGSV,3,2,11,11,72,291,45,14,39,117,49,22,47,229,43,24,00,016,00*7F
01:00:48.827;B;$GPGSV,3,3,11,27,24,155,43,28,23,302,40,32,40,078,50,,,,*4D
01:00:48.956;B;$PGRME,3.5,M,6.2,M,7.2,M*29
01:00:49.016;B;$GPGLL,4721.171,N,00832.191,E,141942,A*26
01:00:49.106;B;$PGRMZ,1342,f,3*2F
01:00:49.147;B;$PGRMM,WGS 84*06
01:00:49.185;B;$GPBOD,,T,,M,,*47
01:00:49.165;A;$SDDPT,2.38,0.00,100.0*5D
01:00:49.228;A;$SDDBT,7.80,f,2.38,M,1.30,F*32
01:00:49.274;B;$GPRTE,1,1,c,0*07
01:00:49.304;A;$YXMTW,26.90,C*2F
01:00:49.527;I;$POSMGYR,-2138,1006,2285*4E
01:00:49.527;I;$POSMACC,180,13588,9504*6A
01:00:50.070;B;$GPRMC,141943,A,4721.171,N,00832.190,E,001.3,282.2,110916,000.2,E*7E
01:00:50.160;A;$SDDPT,2.25,0.00,100.0*51
01:00:50.219;B;$GPRMB,A,,,,,,,,,,,,V*71
01:00:50.226;A;$SDDBT,7.38,f,2.25,M,1.23,F*3F
01:00:50.300;A;$YXMTW,26.90,C*2F
01:00:50.273;B;$GPGGA,141944,4721.171,N,00832.190,E,1,10,0.9,408.9,M,48.0,M,,*48
01:00:50.530;I;$POSMGYR,1655,699,-41*78
01:00:50.530;I;$POSMACC,-300,12724,9220*49
01:00:50.413;B;$GPGSA,A,3,01,03,08,10,11,14,22,,27,28,32,,1.8,0.9,1.6*35
01:00:50.543;B;$GPGSV,3,1,11,01,56,295,47,03,25,231,45,08,59,180,45,10,22,054,45*7C
01:00:50.682;B;$GPGSV,3,2,11,11,72,291,45,14,39,117,49,22,47,229,43,24,00,016,00*7F
01:00:50.830;B;$GPGSV,3,3,11,27,24,155,41,28,23,302,41,32,40,078,51,,,,*4F
01:00:50.956;B;$PGRME,3.5,M,6.2,M,7.2,M*29
01:00:51.017;B;$GPGLL,4721.171,N,00832.190,E,141944,A*21
01:00:51.105;B;$PGRMZ,1342,f,3*2F
01:00:51.148;B;$PGRMM,WGS 84*06
01:00:51.162;A;$SDDPT,2.20,0.00,100.0*54
01:00:51.185;B;$GPBOD,,T,,M,,*47
01:00:51.227;A;$SDDBT,7.21,f,2.20,M,1.20,F*31
01:00:51.271;B;$GPRTE,1,1,c,0*07
01:00:51.303;A;$YXMTW,26.91,C*2E
01:00:51.531;I;$POSMGYR,-1787,2612,1471*41
01:00:51.531;I;$POSMACC,620,15376,8084*6A
01:00:52.071;B;$GPRMC,141945,A,4721.170,N,00832.189,E,001.2,278.2,110916,000.2,E*75
01:00:52.165;A;$SDDPT,2.29,0.00,100.0*5D
01:00:52.219;B;$GPRMB,A,,,,,,,,,,,,V*71
01:00:52.230;A;$SDDBT,7.51,f,2.29,M,1.25,F*3A
01:00:52.304;A;$YXMTW,26.92,C*2D
01:00:52.277;B;$GPGGA,141945,4721.170,N,00832.189,E,1,10,0.9,408.9,M,48.0,M,,*40
01:00:52.534;I;$POSMGYR,-463,-1370,2002*55
01:00:52.534;I;$POSMACC,-52,13160,9692*77
01:00:52.419;B;$GPGSA,A,3,01,03,08,10,11,14,22,,27,28,32,,1.8,0.9,1.6*35
01:00:52.548;B;$GPGSV,3,1,11,01,56,295,48,03,25,231,43,08,58,180,46,10,22,054,45*77
01:00:52.687;B;$GPGSV,3,2,11,11,72,291,46,14,39,117,48,22,47,229,43,24,00,016,00*7D
01:00:52.834;B;$GPGSV,3,3,11,27,24,155,40,28,23,302,39,32,40,078,51,,,,*41
01:00:52.962;B;$PGRME,3.5,M,6.2,M,7.2,M*29
01:00:53.023;B;$GPGLL,4721.170,N,00832.189,E,141946,A*2A
01:00:53.111;B;$PGRMZ,1342,f,3*2F
01:00:53.154;B;$PGRMM,WGS 84*06
01:00:53.161;A;$SDDPT,2.11,0.00,100.0*56
01:00:53.191;B;$GPBOD,,T,,M,,*47
01:00:53.226;A;$SDDBT,6.92,f,2.11,M,1.15,F*3C
01:00:53.274;B;$GPRTE,1,1,c,0*07
01:00:53.302;A;$YXMTW,26.92,C*2D
01:00:53.534;I;$POSMGYR,1650,4876,723*58
01:00:53.534;I;$POSMACC,1612,14400,11224*6D
01:00:54.073;B;$GPRMC,141947,A,4721.170,N,00832.188,E,001.2,278.2,110916,000.2,E*76
01:00:54.163;A;$SDDPT,2.40,0.00,100.0*52
01:00:54.221;B;$GPRMB,A,,,,,,,,,,,,V*71
01:00:54.230;A;$SDDBT,7.87,f,2.40,M,1.31,F*3B
01:00:54.304;A;$YXMTW,26.93,C*2C
01:00:54.279;B;$GPGGA,141947,4721.170,N,00832.188,E,1,10,0.9,409.0,M,48.0,M,,*4B
01:00:54.535;I;$POSMGYR,-1784,952,-240*63
01:00:54.535;I;$POSMACC,-84,12432,9944*7B
01:00:54.422;B;$GPGSA,A,3,01,03,08,10,11,14,22,,27,28,32,,1.8,0.9,1.6*35
01:00:54.548;B;$GPGSV,3,1,11,01,56,295,47,03,25,231,44,08,58,180,47,10,22,054,45*7E
01:00:54.691;B;$GPGSV,3,2,11,11,72,291,46,14,39,117,48,22,47,229,43,24,00,016,00*7D
01:00:54.838;B;$GPGSV,3,3,11,27,24,155,39,28,23,302,38,32,40,078,51,,,,*4E
01:00:54.964;B;$PGRME,3.5,M,6.2,M,7.2,M*29
01:00:55.024;B;$GPGLL,4721.170,N,00832.188,E,141948,A*25
01:00:55.117;B;$PGRMZ,1342,f,3*2F
01:00:55.158;B;$PGRMM,WGS 84*06
01:00:55.166;A;$SDDPT,2.68,0.00,100.0*58
01:00:55.194;B;$GPBOD,,T,,M,,*47
01:00:55.231;A;$SDDBT,8.79,f,2.68,M,1.46,F*3F
01:00:55.278;B;$GPRTE,1,1,c,0*07
01:00:55.306;A;$YXMTW,26.92,C*2D
01:00:55.536;I;$POSMGYR,-2364,3123,1277*4F
01:00:55.536;I;$POSMACC,464,14600,7248*60
01:00:56.077;B;$GPRMC,141949,A,4721.170,N,00832.187,E,001.3,278.2,110916,000.2,E*76
01:00:56.162;A;$SDDPT,2.25,0.00,100.0*51
01:00:56.224;B;$GPRMB,A,,,,,,,,,,,,V*71
01:00:56.226;A;$SDDBT,7.38,f,2.25,M,1.23,F*3F
01:00:56.303;A;$YXMTW,26.92,C*2D
01:00:56.282;B;$GPGGA,141949,4721.170,N,00832.187,E,1,10,0.9,409.0,M,48.0,M,,*4A
01:00:56.539;I;$POSMGYR,-3008,1782,623*7C
01:00:56.539;I;$POSMACC,560,11512,11700*5E
01:00:56.422;B;$GPGSA,A,3,01,03,08,10,11,14,22,,27,28,32,,1.8,0.9,1.6*35
01:00:56.552;B;$GPGSV,3,1,11,01,56,295,47,03,25,231,44,08,58,180,46,10,22,054,45*7F
01:00:56.693;B;$GPGSV,3,2,11,11,72,291,46,14,39,117,48,22,47,229,42,24,00,016,00*7C
01:00:56.850;B;$GPGSV,3,3,11,27,24,155,40,28,23,302,41,32,40,078,51,,,,*4E
01:00:56.966;B;$PGRME,3.5,M,6.2,M,7.2,M*29
01:00:57.026;B;$GPGLL,4721.170,N,00832.187,E,141950,A*23
01:00:57.117;B;$PGRMZ,1342,f,3*2F
01:00:57.158;B;$PGRMM,WGS 84*06
01:00:57.164;A;$SDDPT,2.02,0.00,100.0*54
01:00:57.197;B;$GPBOD,,T,,M,,*47
01:00:57.229;A;$SDDBT,6.62,f,2.02,M,1.10,F*34
01:00:57.285;B;$GPRTE,1,1,c,0*07
01:00:57.305;A;$YXMTW,26.92,C*2D
01:00:57.540;I;$POSMGYR,-345,-9376,-7630*77
01:00:57.540;I;$POSMACC,612,16312,8056*65
01:00:58.160;A;$SDDPT,1.92,0.00,100.0*5E
01:00:58.079;B;$GPRMC,141951,A,4721.170,N,00832.186,E,001.3,261.9,110916,000.2,E*7D
01:00:58.226;B;$GPRMB,A,,,,,,,,,,,,V*71
01:00:58.226;A;$SDDBT,6.30,f,1.92,M,1.05,F*3D
01:00:58.301;A;$YXMTW,26.93,C*2C
01:00:58.283;B;$GPGGA,141951,4721.170,N,00832.186,E,1,10,0.9,408.9,M,48.0,M,,*4A
01:00:58.541;I;$POSMGYR,73,-2243,88*4F
01:00:58.541;I;$POSMACC,-296,12872,9516*49
01:00:58.425;B;$GPGSA,A,3,01,03,08,10,11,14,22,,27,28,32,,1.8,0.9,1.6*35
01:00:58.554;B;$GPGSV,3,1,11,01,56,295,47,03,25,231,45,08,58,180,46,10,22,054,45*7E
01:00:58.695;B;$GPGSV,3,2,11,11,72,291,46,14,39,117,49,22,47,229,41,24,00,016,00*7E
01:00:58.841;B;$GPGSV,3,3,11,27,24,155,40,28,23,302,41,32,40,078,51,,,,*4E
01:00:58.968;B;$PGRME,3.5,M,6.2,M,7.2,M*29
01:00:59.028;B;$GPGLL,4721.170,N,00832.186,E,141952,A*20
01:00:59.119;B;$PGRMZ,1342,f,3*2F
01:00:59.160;B;$PGRMM,WGS 84*06
01:00:59.164;A;$SDDPT,1.92,0.00,100.0*5E
01:00:59.199;B;$GPBOD,,T,,M,,*47
01:00:59.229;A;$SDDBT,6.30,f,1.92,M,1.05,F*3D
01:00:59.285;B;$GPRTE,1,1,c,0*07
01:00:59.304;A;$YXMTW,26.93,C*2C
01:00:59.543;I;$POSMGYR,-1591,-2172,2576*6D
01:00:59.543;I;$POSMACC,-224,12108,10344*7D
01:01:00.080;B;$GPRMC,141953,A,4721.170,N,00832.185,E,001.3,263.0,110916,000.2,E*77
01:01:00.166;A;$SDDPT,1.98,0.00,100.0*54
01:01:00.228;B;$GPRMB,A,,,,,,,,,,,,V*71
01:01:00.230;A;$SDDBT,6.49,f,1.98,M,1.08,F*34
01:01:00.305;A;$YXMTW,26.93,C*2C
01:01:00.284;B;$GPGGA,141953,4721.170,N,00832.185,E,1,10,0.9,408.9,M,48.0,M,,*4B
01:01:00.428;B;$GPGSA,A,3,01,03,08,10,11,14,22,,27,28,32,,1.8,0.9,1.6*35
01:01:00.548;I;$POSMGYR,-1511,-452,2263*53
01:01:00.548;I;$POSMACC,188,14088,9824*6F
01:01:00.575;B;$GPGSV,3,1,11,01,56,295,47,03,25,231,45,08,58,180,45,10,22,054,44*7C
01:01:00.696;B;$GPGSV,3,2,11,11,72,291,46,14,39,117,49,22,47,229,41,24,00,016,00*7E
01:01:00.843;B;$GPGSV,3,3,11,27,24,155,41,28,23,302,42,32,40,078,51,,,,*4C
01:01:00.968;B;$PGRME,3.5,M,6.2,M,7.2,M*29
01:01:01.030;B;$GPGLL,4721.170,N,00832.185,E,141954,A*25
01:01:01.121;B;$PGRMZ,1342,f,3*2F
01:01:01.163;B;$PGRMM,WGS 84*06
01:01:01.163;A;$SDDPT,1.96,0.00,100.0*5A
01:01:01.199;B;$GPBOD,,T,,M,,*47
01:01:01.227;A;$SDDBT,6.43,f,1.96,M,1.07,F*3F
01:01:01.285;B;$GPRTE,1,1,c,0*07
01:01:01.302;A;$YXMTW,26.94,C*2B
01:01:01.547;I;$POSMGYR,-616,3145,2136*78
01:01:01.547;I;$POSMACC,696,12960,8716*61
01:01:02.164;A;$SDDPT,1.74,0.00,100.0*56
01:01:02.082;B;$GPRMC,141955,A,4721.170,N,00832.184,E,001.2,263.0,110916,000.2,E*71
01:01:02.231;B;$GPRMB,A,,,,,,,,,,,,V*71
01:01:02.231;A;$SDDBT,5.70,f,1.74,M,0.95,F*3A
01:01:02.306;A;$YXMTW,26.93,C*2C
01:01:02.285;B;$GPGGA,141955,4721.170,N,00832.184,E,1,10,0.9,408.9,M,48.0,M,,*4C
01:01:02.427;B;$GPGSA,A,3,01,03,08,10,11,14,22,,27,28,32,,1.8,0.9,1.6*35
01:01:02.551;I;$POSMGYR,676,-681,1363*43
01:01:02.551;I;$POSMACC,-128,15800,7764*44
01:01:02.551;B;$GPGSV,3,1,11,01,56,295,47,03,25,231,45,08,58,180,45,10,22,054,44*7C
01:01:02.698;B;$GPGSV,3,2,11,11,72,291,45,14,39,117,49,22,47,229,41,24,00,016,00*7D
01:01:02.844;B;$GPGSV,3,3,11,27,24,155,40,28,23,302,43,32,40,078,51,,,,*4C
01:01:02.971;B;$PGRME,3.5,M,6.2,M,7.2,M*29
01:01:03.032;B;$GPGLL,4721.170,N,00832.184,E,141956,A*26
01:01:03.121;B;$PGRMZ,1342,f,3*2F
01:01:03.164;B;$PGRMM,WGS 84*06
01:01:03.161;A;$SDDPT,1.92,0.00,100.0*5E
01:01:03.201;B;$GPBOD,,T,,M,,*47
01:01:03.226;A;$SDDBT,6.30,f,1.92,M,1.05,F*3D
01:01:03.289;B;$GPRTE,1,1,c,0*07
01:01:03.301;A;$YXMTW,26.94,C*2B
01:01:03.551;I;$POSMGYR,283,1348,1434*54
01:01:03.551;I;$POSMACC,-224,13432,10448*7B
01:01:04.164;A;$SDDPT,2.13,0.00,100.0*54
01:01:04.082;B;$GPRMC,141957,A,4721.170,N,00832.183,E,001.2,263.0,110916,000.2,E*74
01:01:04.232;B;$GPRMB,A,,,,,,,,,,,,V*71
01:01:04.228;A;$SDDBT,6.98,f,2.13,M,1.16,F*37
01:01:04.303;A;$YXMTW,26.94,C*2B
01:01:04.288;B;$GPGGA,141957,4721.170,N,00832.183,E,1,10,0.9,408.8,M,48.0,M,,*48
01:01:04.431;B;$GPGSA,A,3,01,03,08,10,11,14,22,,27,28,32,,1.8,0.9,1.6*35
01:01:04.552;I;$POSMGYR,-2875,3060,-819*5C
01:01:04.552;I;$POSMACC,-228,14200,9428*49
01:01:04.552;B;$GPGSV,3,1,11,01,56,295,47,03,25,231,46,08,58,180,46,10,22,054,44*7C
01:01:04.701;B;$GPGSV,3,2,11,11,73,290,45,14,39,117,48,22,47,229,42,24,00,016,00*7F
01:01:04.845;B;$GPGSV,3,3,11,27,24,155,40,28,23,302,43,32,40,078,51,,,,*4C
01:01:04.973;B;$PGRME,3.5,M,6.2,M,7.2,M*29
01:01:05.034;B;$GPGLL,4721.170,N,00832.183,E,141958,A*2F
01:01:05.123;B;$PGRMZ,1341,f,3*2C
01:01:05.166;B;$PGRMM,WGS 84*06
01:01:05.166;A;$SDDPT,1.84,0.00,100.0*59
01:01:05.203;B;$GPBOD,,T,,M,,*47
01:01:05.230;A;$SDDBT,6.03,f,1.84,M,1.00,F*3F
01:01:05.285;B;$GPRTE,1,1,c,0*07
01:01:05.307;A;$YXMTW,26.94,C*2B
01:01:05.554;I;$POSMGYR,-1975,742,789*41
01:01:05.554;I;$POSMACC,228,14084,10200*5E
01:01:06.160;A;$SDDPT,1.84,0.00,100.0*59
01:01:06.086;B;$GPRMC,141959,A,4721.170,N,00832.182,E,001.2,263.0,110916,000.2,E*7B
01:01:06.234;B;$GPRMB,A,,,,,,,,,,,,V*71
01:01:06.226;A;$SDDBT,6.03,f,1.84,M,1.00,F*3F
01:01:06.302;A;$YXMTW,26.93,C*2C
01:01:06.292;B;$GPGGA,141959,4721.170,N,00832.182,E,1,10,0.9,408.7,M,48.0,M,,*48
01:01:06.433;B;$GPGSA,A,3,01,03,08,10,11,14,22,,27,28,32,,1.8,0.9,1.6*35
01:01:06.557;I;$POSMGYR,-2668,-148,1201*54
01:01:06.557;I;$POSMACC,176,13076,8680*69
01:01:06.557;B;$GPGSV,3,1,11,01,56,295,47,03,25,231,45,08,58,180,47,10,22,054,44*7E
01:01:06.703;B;$GPGSV,3,2,11,11,73,290,46,14,39,117,48,22,47,229,41,24,00,016,00*7F
01:01:06.848;B;$GPGSV,3,3,11,27,24,155,38,28,23,302,41,32,40,078,51,,,,*41
01:01:06.977;B;$PGRME,3.5,M,6.2,M,7.1,M*2A
01:01:07.038;B;$GPGLL,4721.170,N,00832.182,E,142000,A*29
01:01:07.127;B;$PGRMZ,1341,f,3*2C
01:01:07.171;B;$PGRMM,WGS 84*06
01:01:07.164;A;$SDDPT,1.77,0.00,100.0*55
01:01:07.208;B;$GPBOD,,T,,M,,*47
01:01:07.228;A;$SDDBT,5.80,f,1.77,M,0.96,F*35
01:01:07.290;B;$GPRTE,1,1,c,0*07
01:01:07.304;A;$YXMTW,26.94,C*2B
01:01:07.558;I;$POSMGYR,-1051,-2202,3257*65
01:01:07.558;I;$POSMACC,-348,11256,9864*4C
01:01:08.160;A;$SDDPT,1.87,0.00,100.0*5A
01:01:08.087;B;$GPRMC,142001,A,4721.170,N,00832.182,E,001.1,263.0,110916,000.2,E*7F
01:01:08.235;B;$GPRMB,A,,,,,,,,,,,,V*71
01:01:08.226;A;$SDDBT,6.13,f,1.87,M,1.02,F*3F
01:01:08.300;A;$YXMTW,26.95,C*2A
01:01:08.289;B;$GPGGA,142002,4721.170,N,00832.182,E,1,10,0.9,408.5,M,48.0,M,,*4E
01:01:08.428;B;$GPGSA,A,3,01,03,08,10,11,14,22,,27,28,32,,1.8,0.9,1.6*35
01:01:08.559;I;$POSMGYR,-1589,961,-1256*5A
01:01:08.559;I;$POSMACC,216,13824,10860*5A
01:01:08.552;B;$GPGSV,3,1,11,01,56,295,47,03,25,231,41,08,58,180,47,10,22,054,45*7B
01:01:08.700;B;$GPGSV,3,2,11,11,73,290,46,14,39,117,46,22,47,229,42,24,00,016,00*72
01:01:08.846;B;$GPGSV,3,3,11,27,24,155,41,28,23,302,39,32,40,078,51,,,,*40
01:01:08.974;B;$PGRME,3.5,M,6.2,M,7.1,M*2A
01:01:09.035;B;$GPGLL,4721.170,N,00832.181,E,142002,A*28
01:01:09.124;B;$PGRMZ,1340,f,3*2D
01:01:09.167;B;$PGRMM,WGS 84*06
01:01:09.163;A;$SDDPT,2.17,0.00,100.0*50
01:01:09.202;B;$GPBOD,,T,,M,,*47
01:01:09.226;A;$SDDBT,7.12,f,2.17,M,1.18,F*3E
01:01:09.294;B;$GPRTE,1,1,c,0*07
01:01:09.304;A;$YXMTW,26.96,C*29
01:01:09.560;I;$POSMGYR,-1321,-2464,-22*49
01:01:09.560;I;$POSMACC,608,14612,10068*5D
01:01:10.164;A;$SDDPT,1.75,0.00,100.0*57
01:01:10.089;B;$GPRMC,142003,A,4721.170,N,00832.181,E,001.0,263.0,110916,000.2,E*7F
01:01:10.236;B;$GPRMB,A,,,,,,,,,,,,V*71
01:01:10.231;A;$SDDBT,5.74,f,1.75,M,0.95,F*3F
01:01:10.305;A;$YXMTW,26.96,C*29
01:01:10.290;B;$GPGGA,142004,4721.170,N,00832.181,E,1,10,0.9,408.7,M,48.0,M,,*49
01:01:10.430;B;$GPGSA,A,3,01,03,08,10,11,14,22,,27,28,32,,1.9,0.9,1.7*35
01:01:10.561;I;$POSMGYR,1260,-1034,-2629*6D
01:01:10.561;I;$POSMACC,484,16312,7984*61
01:01:10.554;B;$GPGSV,3,1,11,01,56,295,47,03,25,231,40,08,58,180,47,10,22,054,46*79
01:01:10.704;B;$GPGSV,3,2,11,11,73,290,46,14,39,117,45,22,47,229,42,24,00,016,00*71
01:01:10.847;B;$GPGSV,3,3,11,27,24,155,41,28,23,302,38,32,40,078,51,,,,*41
01:01:10.976;B;$PGRME,3.6,M,6.3,M,7.2,M*2B
01:01:11.036;B;$GPGLL,4721.169,N,00832.181,E,142004,A*26
01:01:11.126;B;$PGRMZ,1341,f,3*2C
01:01:11.169;B;$PGRMM,WGS 84*06
01:01:11.160;A;$SDDPT,1.81,0.00,100.0*5C
01:01:11.204;B;$GPBOD,,T,,M,,*47
01:01:11.226;A;$SDDBT,5.93,f,1.81,M,0.98,F*30
01:01:11.299;B;$GPRTE,1,1,c,0*07
01:01:11.301;A;$YXMTW,26.96,C*29
01:01:11.563;I;$POSMGYR,3388,-2177,-5326*60
01:01:11.563;I;$POSMACC,1432,14040,9652*51
01:01:12.163;A;$SDDPT,1.89,0.00,100.0*54
01:01:12.090;B;$GPRMC,142005,A,4721.169,N,00832.180,E,001.1,263.0,110916,000.2,E*71
01:01:12.239;B;$GPRMB,A,,,,,,,,,,,,V*71
01:01:12.228;A;$SDDBT,6.20,f,1.89,M,1.03,F*30
01:01:12.305;A;$YXMTW,26.97,C*28
01:01:12.293;B;$GPGGA,142006,4721.169,N,00832.180,E,1,10,0.9,408.9,M,48.0,M,,*4C
01:01:12.432;B;$GPGSA,A,3,01,03,08,10,11,14,22,,27,28,32,,1.9,0.9,1.7*35
01:01:12.564;I;$POSMGYR,1645,2943,5022*6E
01:01:12.564;I;$POSMACC,-1224,14988,8196*7E
01:01:12.558;B;$GPGSV,3,1,11,01,56,295,47,03,25,231,39,08,58,180,47,10,22,054,46*77
01:01:12.704;B;$GPGSV,3,2,11,11,73,290,46,14,39,117,46,22,47,229,42,24,00,016,00*72
01:01:12.849;B;$GPGSV,3,3,11,27,24,155,41,28,23,302,38,32,40,078,52,,,,*42
01:01:12.978;B;$PGRME,3.6,M,6.3,M,7.2,M*2B
01:01:13.038;B;$GPGLL,4721.169,N,00832.180,E,142006,A*25
01:01:13.127;B;$PGRMZ,1342,f,3*2F
01:01:13.168;B;$PGRMM,WGS 84*06
01:01:13.160;A;$SDDPT,2.19,0.00,100.0*5E
01:01:13.208;B;$GPBOD,,T,,M,,*47
01:01:13.225;A;$SDDBT,7.18,f,2.19,M,1.19,F*3B
01:01:13.294;B;$GPRTE,1,1,c,0*07
01:01:13.300;A;$YXMTW,26.97,C*28
01:01:13.565;I;$POSMGYR,-1528,-2479,-739*77
01:01:13.565;I;$POSMACC,368,14400,9144*68
01:01:14.163;A;$SDDPT,1.83,0.00,100.0*5E
01:01:14.093;B;$GPRMC,142007,A,4721.169,N,00832.179,E,001.2,263.0,110916,000.2,E*76
01:01:14.241;B;$GPRMB,A,,,,,,,,,,,,V*71
01:01:14.228;A;$SDDBT,6.00,f,1.83,M,1.00,F*3B
01:01:14.304;A;$YXMTW,26.96,C*29
01:01:14.295;B;$GPGGA,142008,4721.169,N,00832.179,E,1,10,0.9,408.9,M,48.0,M,,*44
01:01:14.436;B;$GPGSA,A,3,01,03,08,10,11,14,22,,27,28,32,,1.9,0.9,1.7*35
01:01:14.566;I;$POSMGYR,1006,1830,-1013*42
01:01:14.566;I;$POSMACC,0,14268,10564*53
01:01:14.558;B;$GPGSV,3,1,11,01,56,295,47,03,25,231,41,08,58,180,47,10,22,054,46*78
01:01:14.705;B;$GPGSV,3,2,11,11,73,290,46,14,39,117,46,22,47,229,42,24,00,016,00*72
01:01:14.851;B;$GPGSV,3,3,11,27,24,155,41,28,23,302,40,32,40,078,52,,,,*4D
01:01:14.981;B;$PGRME,3.5,M,6.2,M,7.1,M*2A
01:01:15.039;B;$GPGLL,4721.169,N,00832.179,E,142008,A*2D
01:01:15.128;B;$PGRMZ,1341,f,3*2C
01:01:15.171;B;$PGRMM,WGS 84*06
01:01:15.164;A;$SDDPT,1.83,0.00,100.0*5E
01:01:15.208;B;$GPBOD,,T,,M,,*47
01:01:15.230;A;$SDDBT,6.00,f,1.83,M,1.00,F*3B
01:01:15.294;B;$GPRTE,1,1,c,0*07
01:01:15.304;A;$YXMTW,26.97,C*28
01:01:15.567;I;$POSMGYR,-3601,-1037,-1106*4B
01:01:15.567;I;$POSMACC,604,14680,8876*64
01:01:16.161;A;$SDDPT,1.71,0.00,100.0*53
01:01:16.095;B;$GPRMC,142009,A,4721.168,N,00832.179,E,001.1,263.0,110916,000.2,E*7A
01:01:16.243;B;$GPRMB,A,,,,,,,,,,,,V*71
01:01:16.226;A;$SDDBT,5.61,f,1.71,M,0.93,F*39
01:01:16.302;A;$YXMTW,26.98,C*27
01:01:16.299;B;$GPGGA,142009,4721.168,N,00832.179,E,1,10,0.9,408.8,M,48.0,M,,*45
01:01:16.440;B;$GPGSA,A,3,01,03,08,10,11,14,22,,27,28,32,,1.8,0.9,1.6*35
01:01:16.568;I;$POSMGYR,665,1089,186*6B
01:01:16.568;I;$POSMACC,-452,15484,7744*4E
01:01:16.562;B;$GPGSV,3,1,11,01,56,295,47,03,25,231,44,08,58,180,46,10,22,054,45*7F
01:01:16.710;B;$GPGSV,3,2,11,11,73,290,46,14,40,116,48,22,47,229,42,24,00,016,00*73
01:01:16.857;B;$GPGSV,3,3,11,27,24,155,41,28,23,302,41,32,40,078,51,,,,*4F
01:01:16.983;B;$PGRME,3.5,M,6.2,M,7.1,M*2A
01:01:17.043;B;$GPGLL,4721.168,N,00832.178,E,142010,A*24
01:01:17.135;B;$PGRMZ,1341,f,3*2C
01:01:17.175;B;$PGRMM,WGS 84*06
01:01:17.163;A;$SDDPT,1.72,0.00,100.0*50
01:01:17.214;B;$GPBOD,,T,,M,,*47
01:01:17.229;A;$SDDBT,5.64,f,1.72,M,0.94,F*38
01:01:17.296;B;$GPRTE,1,1,c,0*07
01:01:17.304;A;$YXMTW,26.99,C*26
01:01:17.571;I;$POSMGYR,785,4521,-1085*78
01:01:17.571;I;$POSMACC,-1772,13100,8900*70
01:01:18.159;A;$SDDPT,2.02,0.00,100.0*54
01:01:18.096;B;$GPRMC,142011,A,4721.168,N,00832.178,E,001.1,263.0,110916,000.2,E*72
01:01:18.225;A;$SDDBT,6.62,f,2.02,M,1.10,F*34
01:01:18.243;B;$GPRMB,A,,,,,,,,,,,,V*71
01:01:18.301;A;$YXMTW,27.00,C*27
01:01:18.301;B;$GPGGA,142012,4721.168,N,00832.178,E,1,10,0.9,408.7,M,48.0,M,,*41
01:01:18.440;B;$GPGSA,A,3,01,03,08,10,11,14,22,,27,28,32,,1.8,0.9,1.6*35
01:01:18.572;I;$POSMGYR,-1564,4094,1604*40
01:01:18.572;I;$POSMACC,1356,14916,8728*53
01:01:18.563;B;$GPGSV,3,1,11,01,56,295,47,03,25,231,44,08,58,180,47,10,22,054,44*7F
01:01:18.708;B;$GPGSV,3,2,11,11,73,290,46,14,40,116,48,22,47,229,41,24,00,016,00*70
01:01:18.855;B;$GPGSV,3,3,11,27,24,155,41,28,23,302,42,32,40,078,51,,,,*4C
01:01:18.983;B;$PGRME,3.5,M,6.2,M,7.1,M*2A
01:01:19.043;B;$GPGLL,4721.169,N,00832.177,E,142012,A*28
01:01:19.132;B;$PGRMZ,1341,f,3*2C
01:01:19.175;B;$PGRMM,WGS 84*06
01:01:19.161;A;$SDDPT,1.72,0.00,100.0*50
01:01:19.212;B;$GPBOD,,T,,M,,*47
01:01:19.228;A;$SDDBT,5.64,f,1.72,M,0.94,F*38
01:01:19.303;B;$GPRTE,1,1,c,0*07
01:01:19.303;A;$YXMTW,27.01,C*26
01:01:19.575;I;$POSMGYR,-687,1453,-178*65
01:01:19.575;I;$POSMACC,-524,14276,9884*49
01:01:20.163;A;$SDDPT,1.69,0.00,100.0*5A
01:01:20.098;B;$GPRMC,142013,A,4721.168,N,00832.177,E,001.2,263.0,110916,000.2,E*7C
01:01:20.245;B;$GPRMB,A,,,,,,,,,,,,V*71
01:01:20.229;A;$SDDBT,5.54,f,1.69,M,0.92,F*37
01:01:20.306;A;$YXMTW,27.03,C*24
01:01:20.303;B;$GPGGA,142014,4721.168,N,00832.176,E,1,10,0.9,408.7,M,48.0,M,,*49
01:01:20.441;B;$GPGSA,A,3,01,03,08,10,11,14,22,,27,28,32,,1.9,0.9,1.6*34
01:01:20.576;I;$POSMGYR,123,3726,-2149*72
01:01:20.576;I;$POSMACC,-420,12776,8776*4C
01:01:20.565;B;$GPGSV,3,1,11,01,56,295,47,03,25,231,43,08,58,180,47,10,22,054,44*78
01:01:20.710;B;$GPGSV,3,2,11,11,73,290,46,14,40,116,48,22,47,229,42,24,00,016,00*73
01:01:20.857;B;$GPGSV,3,3,11,27,24,155,39,28,23,302,41,32,40,078,51,,,,*40
01:01:20.985;B;$PGRME,3.5,M,6.2,M,7.1,M*2A
01:01:21.047;B;$GPGLL,4721.169,N,00832.176,E,142014,A*2F
01:01:21.136;B;$PGRMZ,1341,f,3*2C
01:01:21.176;B;$PGRMM,WGS 84*06
01:01:21.160;A;$SDDPT,1.71,0.00,100.0*53
01:01:21.215;B;$GPBOD,,T,,M,,*47
01:01:21.225;A;$SDDBT,5.61,f,1.71,M,0.93,F*39
01:01:21.300;B;$GPRTE,1,1,c,0*07
01:01:21.300;A;$YXMTW,27.04,C*23
01:01:21.579;I;$POSMGYR,633,2479,219*65
01:01:21.579;I;$POSMACC,328,14472,10920*5B
01:01:22.163;A;$SDDPT,1.69,0.00,100.0*5A
01:01:22.100;B;$GPRMC,142015,A,4721.168,N,00832.176,E,001.1,263.0,110916,000.2,E*78
01:01:22.228;A;$SDDBT,5.54,f,1.69,M,0.92,F*37
01:01:22.248;B;$GPRMB,A,,,,,,,,,,,,V*71
01:01:22.304;A;$YXMTW,27.06,C*21
01:01:22.304;B;$GPGGA,142016,4721.168,N,00832.176,E,1,10,0.9,408.8,M,48.0,M,,*44
01:01:22.443;B;$GPGSA,A,3,01,03,08,10,11,14,22,,27,28,32,,1.9,0.9,1.6*34
01:01:22.580;I;$POSMGYR,-1323,-6630,-2773*4D
01:01:22.580;I;$POSMACC,36,14196,7652*54
01:01:22.565;B;$GPGSV,3,1,11,01,56,295,47,03,25,231,40,08,58,180,47,10,22,054,45*7A
01:01:22.712;B;$GPGSV,3,2,11,11,73,290,46,14,40,116,47,22,47,229,43,24,00,016,00*7D
01:01:22.860;B;$GPGSV,3,3,11,27,24,155,41,28,23,302,39,32,40,078,51,,,,*40
01:01:22.985;B;$PGRME,3.5,M,6.2,M,7.1,M*2A
01:01:23.046;B;$GPGLL,4721.168,N,00832.175,E,142016,A*2F
01:01:23.138;B;$PGRMZ,1341,f,3*2C
01:01:23.178;B;$PGRMM,WGS 84*06
01:01:23.160;A;$SDDPT,1.56,0.00,100.0*56
01:01:23.217;B;$GPBOD,,T,,M,,*47
01:01:23.223;A;$SDDBT,5.11,f,1.56,M,0.85,F*3C
01:01:23.300;A;$YXMTW,27.07,C*20
01:01:23.304;B;$GPRTE,1,1,c,0*07
01:01:23.582;I;$POSMGYR,-230,1709,722*45
01:01:23.582;I;$POSMACC,308,13900,9524*66
01:01:24.162;A;$SDDPT,1.65,0.00,100.0*56
01:01:24.103;B;$GPRMC,142017,A,4721.168,N,00832.175,E,001.1,263.0,110916,000.2,E*79
01:01:24.227;A;$SDDBT,5.41,f,1.65,M,0.90,F*3D
01:01:24.250;B;$GPRMB,A,,,,,,,,,,,,V*71
01:01:24.303;A;$YXMTW,27.08,C*2F
01:01:24.303;B;$GPGGA,142018,4721.168,N,00832.175,E,1,10,1.0,408.7,M,48.0,M,,*4E
01:01:24.445;B;$GPGSA,A,3,01,03,08,10,11,14,22,,27,28,32,,2.0,1.0,1.8*38
01:01:24.584;I;$POSMGYR,-791,4672,651*46
01:01:24.584;I;$POSMACC,1052,14420,10004*6C
01:01:24.569;B;$GPGSV,3,1,11,01,56,295,46,03,25,231,40,08,58,180,47,10,22,054,45*7B
01:01:24.715;B;$GPGSV,3,2,11,11,73,290,46,14,40,116,46,22,47,229,43,24,00,016,00*7C
01:01:24.861;B;$GPGSV,3,3,11,27,24,155,40,28,23,302,38,32,40,078,51,,,,*40
01:01:24.987;B;$PGRME,3.6,M,6.3,M,7.2,M*2B
01:01:25.048;B;$GPGLL,4721.168,N,00832.175,E,142018,A*21
01:01:25.139;B;$PGRMZ,1341,f,3*2C
01:01:25.180;B;$PGRMM,WGS 84*06
01:01:25.164;A;$SDDPT,1.42,0.00,100.0*53
01:01:25.219;B;$GPBOD,,T,,M,,*47
01:01:25.230;A;$SDDBT,4.65,f,1.42,M,0.77,F*36
01:01:25.303;B;$GPRTE,1,1,c,0*07
01:01:25.303;A;$YXMTW,27.09,C*2E
01:01:25.585;I;$POSMGYR,1427,-1813,-2305*6E
01:01:25.585;I;$POSMACC,1024,13224,10740*6F
01:01:26.160;A;$SDDPT,1.35,0.00,100.0*53
01:01:26.105;B;$GPRMC,142019,A,4721.168,N,00832.174,E,001.2,263.0,110916,000.2,E*75
01:01:26.224;A;$SDDBT,4.42,f,1.35,M,0.73,F*37
01:01:26.252;B;$GPRMB,A,,,,,,,,,,,,V*71
01:01:26.300;A;$YXMTW,27.10,C*26
01:01:26.305;B;$GPGGA,142020,4721.168,N,00832.174,E,1,10,1.0,408.8,M,48.0,M,,*4B
01:01:26.448;B;$GPGSA,A,3,01,03,08,10,11,14,22,,27,28,32,,1.8,0.9,1.6*35
01:01:26.587;I;$POSMGYR,214,627,-1962*44
01:01:26.587;I;$POSMACC,-848,13804,9620*46
01:01:26.569;B;$GPGSV,3,1,11,01,56,295,46,03,25,231,40,08,58,180,47,10,22,054,45*7B
01:01:26.715;B;$GPGSV,3,2,11,11,73,290,46,14,40,116,46,22,47,229,43,24,00,016,00*7C
01:01:26.863;B;$GPGSV,3,3,11,27,24,155,40,28,23,302,38,32,40,078,51,,,,*40
01:01:26.989;B;$PGRME,3.5,M,6.2,M,7.1,M*2A
01:01:27.052;B;$GPGLL,4721.168,N,00832.174,E,142020,A*2B
01:01:27.141;B;$PGRMZ,1342,f,3*2F
01:01:27.181;B;$PGRMM,WGS 84*06
01:01:27.162;A;$SDDPT,1.36,0.00,100.0*50
01:01:27.220;B;$GPBOD,,T,,M,,*47
01:01:27.228;A;$SDDBT,4.46,f,1.36,M,0.74,F*37
01:01:27.305;B;$GPRTE,1,1,c,0*07
01:01:27.303;A;$YXMTW,27.11,C*27
01:01:27.589;I;$POSMGYR,-1692,-1403,-3682*49
01:01:27.589;I;$POSMACC,-448,14068,9220*4B
01:01:28.159;A;$SDDPT,1.48,0.00,100.0*59
01:01:28.107;B;$GPRMC,142021,A,4721.167,N,00832.173,E,001.2,263.0,110916,000.2,E*76
01:01:28.224;A;$SDDBT,4.85,f,1.48,M,0.80,F*3A
01:01:28.256;B;$GPRMB,A,,,,,,,,,,,,V*71
01:01:28.299;A;$YXMTW,27.12,C*24
01:01:28.309;B;$GPGGA,142022,4721.167,N,00832.173,E,1,10,0.9,408.9,M,48.0,M,,*48
01:01:28.448;B;$GPGSA,A,3,01,03,08,10,11,14,22,,27,28,32,,1.8,0.9,1.6*35
01:01:28.592;I;$POSMGYR,1887,-140,1827*73
01:01:28.592;I;$POSMACC,48,13296,9212*57
01:01:28.571;B;$GPGSV,3,1,11,01,56,295,46,03,25,231,40,08,58,180,47,10,22,054,44*7A
01:01:28.719;B;$GPGSV,3,2,11,11,73,290,46,14,40,116,47,22,47,229,42,24,00,016,00*7C
01:01:28.866;B;$GPGSV,3,3,11,27,24,155,39,28,23,302,40,32,40,078,51,,,,*41
01:01:28.992;B;$PGRME,3.5,M,6.2,M,7.1,M*2A
01:01:29.053;B;$GPGLL,4721.167,N,00832.173,E,142022,A*21
01:01:29.142;B;$PGRMZ,1342,f,3*2F
01:01:29.185;B;$PGRMM,WGS 84*06
01:01:29.162;A;$SDDPT,1.44,0.00,100.0*55
01:01:29.223;B;$GPBOD,,T,,M,,*47
01:01:29.225;A;$SDDBT,4.72,f,1.44,M,0.78,F*39
01:01:29.300;A;$YXMTW,27.12,C*24
01:01:29.307;B;$GPRTE,1,1,c,0*07
01:01:29.593;I;$POSMGYR,-487,-1202,-626*44
01:01:29.593;I;$POSMACC,84,12808,9264*5A
01:01:30.164;A;$SDDPT,1.38,0.00,100.0*5E
01:01:30.107;B;$GPRMC,142023,A,4721.167,N,00832.172,E,001.2,263.0,110916,000.2,E*75
01:01:30.229;A;$SDDBT,4.52,f,1.38,M,0.75,F*3D
01:01:30.255;B;$GPRMB,A,,,,,,,,,,,,V*71
01:01:30.305;A;$YXMTW,27.13,C*25
01:01:30.310;B;$GPGGA,142024,4721.167,N,00832.172,E,1,10,0.9,408.8,M,48.0,M,,*4E
01:01:30.449;B;$GPGSA,A,3,01,03,08,10,11,14,22,,27,28,32,,1.8,0.9,1.6*35
01:01:30.595;I;$POSMGYR,-3225,-1496,-2215*44
01:01:30.595;I;$POSMACC,-736,15132,9080*46
01:01:30.573;B;$GPGSV,3,1,11,01,56,295,46,03,25,231,38,08,58,180,46,10,22,054,44*74
01:01:30.720;B;$GPGSV,3,2,11,11,73,290,46,14,40,116,48,22,47,229,42,24,00,016,00*73
01:01:30.866;B;$GPGSV,3,3,11,27,24,155,41,28,23,302,41,32,40,078,51,,,,*4F
01:01:30.994;B;$PGRME,3.5,M,6.2,M,7.1,M*2A
01:01:31.055;B;$GPGLL,4721.167,N,00832.172,E,142024,A*26
01:01:31.144;B;$PGRMZ,1341,f,3*2C
01:01:31.159;A;$SDDPT,1.36,0.00,100.0*50
01:01:31.187;B;$PGRMM,WGS 84*06
01:01:31.225;B;$GPBOD,,T,,M,,*47
01:01:31.225;A;$SDDBT,4.46,f,1.36,M,0.74,F*37
01:01:31.299;A;$YXMTW,27.14,C*22
01:01:31.308;B;$GPRTE,1,1,c,0*07
01:01:31.596;I;$POSMGYR,2068,-178,1538*71
01:01:31.596;I;$POSMACC,-44,13920,9832*78
01:01:32.162;A;$SDDPT,1.15,0.00,100.0*51
01:01:32.109;B;$GPRMC,142025,A,4721.167,N,00832.171,E,001.1,263.0,110916,000.2,E*73
01:01:32.227;A;$SDDBT,3.77,f,1.15,M,0.62,F*34
01:01:32.257;B;$GPRMB,A,,,,,,,,,,,,V*71
01:01:32.302;A;$YXMTW,27.15,C*23
01:01:32.312;B;$GPGGA,142026,4721.167,N,00832.171,E,1,10,0.9,408.8,M,48.0,M,,*4F
01:01:32.452;B;$GPGSA,A,3,01,03,08,10,11,14,22,,27,28,32,,1.8,0.9,1.6*35
01:01:32.598;I;$POSMGYR,-336,6290,-857*60
01:01:32.598;I;$POSMACC,460,13908,9580*69
01:01:32.574;B;$GPGSV,3,1,11,01,56,295,47,03,25,231,37,08,58,180,46,10,22,054,44*7A
01:01:32.722;B;$GPGSV,3,2,11,11,73,290,45,14,40,116,49,22,47,229,43,24,00,016,00*70
01:01:32.867;B;$GPGSV,3,3,11,27,24,155,43,28,23,302,41,32,40,078,50,,,,*4C
01:01:32.996;B;$PGRME,3.5,M,6.2,M,7.1,M*2A
01:01:33.057;B;$GPGLL,4721.167,N,00832.171,E,142026,A*27
01:01:33.147;B;$PGRMZ,1341,f,3*2C
01:01:33.158;A;$SDDPT,1.20,0.00,100.0*57
01:01:33.188;B;$PGRMM,WGS 84*06
01:01:33.225;B;$GPBOD,,T,,M,,*47
01:01:33.222;A;$SDDBT,3.93,f,1.20,M,0.65,F*3F
01:01:33.298;A;$YXMTW,27.15,C*23
01:01:33.309;B;$GPRTE,1,1,c,0*07
01:01:33.600;I;$POSMGYR,53,-2801,-2484*66
01:01:33.600;I;$POSMACC,968,12612,10284*52
01:01:34.161;A;$SDDPT,1.33,0.00,100.0*55
01:01:34.111;B;$GPRMC,142027,A,4721.168,N,00832.170,E,001.1,263.0,110916,000.2,E*7F
01:01:34.226;A;$SDDBT,4.36,f,1.33,M,0.72,F*33
01:01:34.259;B;$GPRMB,A,,,,,,,,,,,,V*71
01:01:34.303;A;$YXMTW,27.16,C*20
01:01:34.313;B;$GPGGA,142028,4721.168,N,00832.170,E,1,10,0.9,408.8,M,48.0,M,,*4F
01:01:34.454;B;$GPGSA,A,3,01,03,08,10,11,14,22,,27,28,32,,1.9,0.9,1.7*35
01:01:34.602;I;$POSMGYR,-2248,1495,5061*4B
01:01:34.602;I;$POSMACC,-428,14128,9628*44
01:01:34.576;B;$GPGSV,3,1,11,01,56,295,47,03,25,231,35,08,58,180,45,10,22,054,44*7B
01:01:34.724;B;$GPGSV,3,2,11,11,73,290,45,14,40,116,49,22,47,229,43,24,00,016,00*70
01:01:34.871;B;$GPGSV,3,3,11,27,24,155,42,28,23,302,43,32,40,078,50,,,,*4F
01:01:34.997;B;$PGRME,3.6,M,6.3,M,7.2,M*2B
01:01:35.057;B;$GPGLL,4721.168,N,00832.170,E,142028,A*27
01:01:35.149;B;$PGRMZ,1342,f,3*2F
01:01:35.190;B;$PGRMM,WGS 84*06
01:01:35.164;A;$SDDPT,1.32,0.00,100.0*54
01:01:35.227;B;$GPBOD,,T,,M,,*47
01:01:35.229;A;$SDDBT,4.33,f,1.32,M,0.72,F*37
01:01:35.302;A;$YXMTW,27.17,C*21
01:01:35.313;B;$GPRTE,1,1,c,0*07
01:01:35.604;I;$POSMGYR,1283,680,2037*51
01:01:35.604;I;$POSMACC,712,13556,10100*5C
01:01:36.160;A;$SDDPT,1.29,0.00,100.0*5E
01:01:36.114;B;$GPRMC,142029,A,4721.168,N,00832.170,E,001.0,263.0,110916,000.2,E*70
01:01:36.225;A;$SDDBT,4.23,f,1.29,M,0.70,F*3E
01:01:36.262;B;$GPRMB,A,,,,,,,,,,,,V*71
01:01:36.301;A;$YXMTW,27.18,C*2E
01:01:36.315;B;$GPGGA,142030,4721.168,N,00832.170,E,1,10,0.9,409.0,M,48.0,M,,*4F
01:01:36.456;B;$GPGSA,A,3,01,03,08,10,11,14,22,,27,28,32,,2.0,1.0,1.8*38
01:01:36.607;I;$POSMGYR,-3099,3618,1721*46
01:01:36.607;I;$POSMACC,-128,14780,9864*43
01:01:36.578;B;$GPGSV,3,1,11,01,56,295,47,03,25,231,34,08,58,180,46,10,22,054,45*78
01:01:36.724;B;$GPGSV,3,2,11,11,73,290,46,14,40,116,48,22,47,229,44,24,00,016,00*75
01:01:36.871;B;$GPGSV,3,3,11,27,24,155,40,28,23,302,40,32,40,078,51,,,,*4F
01:01:36.999;B;$PGRME,3.6,M,6.3,M,7.2,M*2B
01:01:37.059;B;$GPGLL,4721.168,N,00832.170,E,142030,A*2E
01:01:37.148;B;$PGRMZ,1342,f,3*2F
01:01:37.162;A;$SDDPT,1.18,0.00,100.0*5C
01:01:37.191;B;$PGRMM,WGS 84*06
01:01:37.229;B;$GPBOD,,T,,M,,*47
01:01:37.226;A;$SDDBT,3.87,f,1.18,M,0.64,F*30
01:01:37.304;A;$YXMTW,27.19,C*2F
01:01:37.314;B;$GPRTE,1,1,c,0*07
01:01:37.608;I;$POSMGYR,-600,-3522,-1146*7E
01:01:37.608;I;$POSMACC,-44,14900,9728*79
01:01:38.158;A;$SDDPT,1.00,0.00,100.0*55
01:01:38.114;B;$GPRMC,142031,A,4721.167,N,00832.169,E,001.1,263.0,110916,000.2,E*7F
01:01:38.223;A;$SDDBT,3.28,f,1.00,M,0.54,F*3F
01:01:38.262;B;$GPRMB,A,,,,,,,,,,,,V*71
01:01:38.298;A;$YXMTW,27.19,C*2F
01:01:38.317;B;$GPGGA,142032,4721.167,N,00832.169,E,1,10,1.0,409.2,M,48.0,M,,*40
01:01:38.457;B;$GPGSA,A,3,01,03,08,10,11,14,22,,27,28,32,,2.0,1.0,1.8*38
01:01:38.610;I;$POSMGYR,-2269,5324,1446*44
01:01:38.610;I;$POSMACC,48,14704,8752*5E
01:01:38.581;B;$GPGSV,3,1,11,01,56,295,48,03,25,231,35,08,58,180,47,10,22,054,46*74
01:01:38.726;B;$GPGSV,3,2,11,11,73,290,46,14,40,116,46,22,47,229,44,24,00,016,00*7B
01:01:38.873;B;$GPGSV,3,3,11,27,24,155,41,28,23,302,39,32,40,078,51,,,,*40
01:01:39.001;B;$PGRME,3.5,M,6.2,M,7.1,M*2A
01:01:39.061;B;$GPGLL,4721.167,N,00832.169,E,142032,A*2B
01:01:39.152;B;$PGRMZ,1342,f,3*2F
01:01:39.161;A;$SDDPT,0.97,0.00,100.0*5A
01:01:39.193;B;$PGRMM,WGS 84*06
01:01:39.230;B;$GPBOD,,T,,M,,*47
01:01:39.225;A;$SDDBT,3.18,f,0.97,M,0.53,F*34
01:01:39.299;A;$YXMTW,27.20,C*25
01:01:39.317;B;$GPRTE,1,1,c,0*07
01:01:39.612;I;$POSMGYR,2842,2292,-1676*4D
01:01:39.612;I;$POSMACC,76,14348,9604*5C
01:01:40.162;A;$SDDPT,0.97,0.00,100.0*5A
01:01:40.118;B;$GPRMC,142033,A,4721.167,N,00832.168,E,001.1,263.0,110916,000.2,E*7C
01:01:40.227;A;$SDDBT,3.18,f,0.97,M,0.53,F*34
01:01:40.263;B;$GPRMB,A,,,,,,,,,,,,V*71
01:01:40.303;A;$YXMTW,27.21,C*24
01:01:40.319;B;$GPGGA,142034,4721.167,N,00832.168,E,1,10,1.0,409.3,M,48.0,M,,*46
01:01:40.459;B;$GPGSA,A,3,01,03,08,10,11,14,22,,27,28,32,,2.3,1.1,2.0*31
01:01:40.614;I;$POSMGYR,-2023,-144,-2385*72
01:01:40.614;I;$POSMACC,-72,13252,9636*79
01:01:40.583;B;$GPGSV,3,1,11,01,56,295,47,03,25,231,34,08,58,180,47,10,22,054,46*7A
01:01:40.728;B;$GPGSV,3,2,11,11,73,290,46,14,40,116,47,22,47,229,43,24,00,016,00*7D
01:01:40.875;B;$GPGSV,3,3,11,27,24,155,39,28,23,302,37,32,40,078,52,,,,*42
01:01:41.005;B;$PGRME,3.7,M,6.7,M,7.6,M*2A
01:01:41.063;B;$GPGLL,4721.167,N,00832.168,E,142034,A*2C
01:01:41.154;B;$PGRMZ,1343,f,3*2E
01:01:41.158;A;$SDDPT,0.93,0.00,100.0*5E
01:01:41.195;B;$PGRMM,WGS 84*06
01:01:41.233;B;$GPBOD,,T,,M,,*47
01:01:41.223;A;$SDDBT,3.05,f,0.93,M,0.50,F*3F
01:01:41.299;A;$YXMTW,27.21,C*24
01:01:41.319;B;$GPRTE,1,1,c,0*07
01:01:41.616;I;$POSMGYR,-1272,2514,3640*49
01:01:41.616;I;$POSMACC,600,14280,7844*6A
01:01:42.161;A;$SDDPT,1.05,0.00,100.0*50
01:01:42.119;B;$GPRMC,142035,A,4721.167,N,00832.167,E,001.1,263.0,110916,000.2,E*75
01:01:42.225;A;$SDDBT,3.44,f,1.05,M,0.57,F*33
01:01:42.267;B;$GPRMB,A,,,,,,,,,,,,V*71
01:01:42.303;A;$YXMTW,27.21,C*24
01:01:42.320;B;$GPGGA,142036,4721.167,N,00832.167,E,1,10,1.1,409.4,M,48.0,M,,*4D
01:01:42.461;B;$GPGSA,A,3,01,03,08,10,11,14,22,,27,28,32,,2.3,1.1,2.0*31
01:01:42.619;I;$POSMGYR,-2028,2466,-390*55
01:01:42.619;I;$POSMACC,432,13992,9244*62
01:01:42.583;B;$GPGSV,3,1,11,01,56,295,47,03,25,231,32,08,58,180,46,10,22,054,45*7E
01:01:42.731;B;$GPGSV,3,2,11,11,73,290,46,14,40,116,48,22,47,229,45,24,00,016,00*74
01:01:42.878;B;$GPGSV,3,3,11,27,24,155,43,28,23,302,36,32,40,078,50,,,,*4C
01:01:43.005;B;$PGRME,3.7,M,6.7,M,7.6,M*2A
01:01:43.065;B;$GPGLL,4721.167,N,00832.167,E,142036,A*21
01:01:43.156;B;$PGRMZ,1343,f,3*2E
01:01:43.158;A;$SDDPT,1.05,0.00,100.0*50
01:01:43.197;B;$PGRMM,WGS 84*06
01:01:43.237;B;$GPBOD,,T,,M,,*47
01:01:43.223;A;$SDDBT,3.44,f,1.05,M,0.57,F*33
01:01:43.300;A;$YXMTW,27.21,C*24
01:01:43.320;B;$GPRTE,1,1,c,0*07
01:01:43.619;I;$POSMGYR,1550,2696,266*59
01:01:43.619;I;$POSMACC,940,14384,7904*61
01:01:44.161;A;$SDDPT,1.11,0.00,100.0*55
01:01:44.121;B;$GPRMC,142037,A,4721.167,N,00832.166,E,001.1,263.0,110916,000.2,E*76
01:01:44.225;A;$SDDBT,3.64,f,1.11,M,0.60,F*30
01:01:44.268;B;$GPRMB,A,,,,,,,,,,,,V*71
01:01:44.301;A;$YXMTW,27.22,C*27
01:01:44.322;B;$GPGGA,142038,4721.167,N,00832.166,E,1,10,1.1,409.5,M,48.0,M,,*43
01:01:44.463;B;$GPGSA,A,3,01,03,08,10,11,14,22,,27,28,32,,2.3,1.1,2.0*31
01:01:44.622;I;$POSMGYR,-2337,5256,2834*40
01:01:44.622;I;$POSMACC,-1564,12552,10812*4C
01:01:44.589;B;$GPGSV,3,1,11,01,56,295,47,03,25,231,32,08,58,180,46,10,22,054,45*7E
