02:00:02.457;I;$POSMST,Start NMEA Logger,V 0.1.15*06
02:00:02.498;I;$POSMCFG,255,255,255,255,ffff,65535*73
02:00:02.504;A;$SDDPT,16.36,0.00,100.0*66
02:00:00.388;B;$GPRMC,121133,A,4721.463,N,00832.496,E,000.0,253.6,110916,000.2,E*78
02:00:02.506;I;$POSMGYR,-968,-1640,-248*46
02:00:02.506;I;$POSMACC,492,7508,14628*60
02:00:02.532;A;$SDDBT,53.68,f,16.36,M,8.94,F*39
02:00:02.535;B;$GPRMB,A,,,,,,,,,,,,V*71
02:00:02.539;A;$SDDPT,16.32,0.00,100.0*62
02:00:02.540;B;$GPGGA,121133,4721.463,N16,000.2,E*7D
02:00:02.544;A;$SDDBT,53.55,f,16.32,M,8.92,F*35
02:00:02.547;B;$GPRMB,A,,,,,,,,,,,,V*71
02:00:02.594;B;$GPGGA,121135,4721.463,N,00832.495,E,1,11,0.7,411.1,M,48.0,M,,*49
02:00:02.734;B;$GPGSA,A,3,07,08,10,11,15,16,18,21,26,27,,32,1.2,0.7,0.9*38
02:00:02.863;B;$GPGSV,3,1,12,07,05,289,33,08,52,302,43,10,64,106,49,11,18,274,42*77
02:00:03.009;B;$GPGSV,3,2,12,15,05,029,43,16,35,194,49,18,39,058,49,21,13,073,46*72
02:00:03.172;A;$SDDPT,16.26,0.00,100.0*67
02:00:03.154;B;$GPGSV,3,3,12,26,11,178,43,27,85,114,48,30,06,313,33,32,08,133,45*7A
02:00:03.239;A;$SDDBT,53.35,f,16.26,M,8.89,F*3C
02:00:03.302;B;$PGRME,2.9,M,3.6,M,4.6,M*22
02:00:03.361;B;$GPGLL,4721.463,N,00832.495,E,121136,A*2C
02:00:03.450;B;$PGRMZ,1348,f,3*25
02:00:03.505;I;$POSMGYR,1889,-963,3177*7A
02:00:03.505;I;$POSMACC,-940,10552,14984*7F
02:00:03.493;B;$PGRMM,WGS 84*06
02:00:03.531;B;$GPBOD,,T,,M,,*47
02:00:03.592;B;$GPRTE,1,1,c,0*07
02:00:04.174;A;$SDDPT,16.30,0.00,100.0*60
02:00:04.241;A;$SDDBT,53.48,f,16.30,M,8.91,F*38
02:00:04.507;I;$POSMGYR,450,621,-786*71
02:00:04.507;I;$POSMACC,-284,10100,13532*79
02:00:04.393;B;$GPRMC,121137,A,4721.463,N,00832.494,E,000.0,253.6,110916,000.2,E*7E
02:00:04.540;B;$GPRMB,A,,,,,,,,,,,,V*71
02:00:04.593;B;$GPGGA,121137,4721.463,N,00832.494,E,1,11,0.7,411.1,M,48.0,M,,*4A
02:00:04.736;B;$GPGSA,A,3,07,08,10,11,15,16,18,21,26,27,,32,1.2,0.7,0.9*38
02:00:04.861;B;$GPGSV,3,1,12,07,05,289,34,08,52,302,43,10,64,106,49,11,18,274,42*70
02:00:05.008;B;$GPGSV,3,2,12,15,05,029,42,16,35,194,49,18,39,058,49,21,13,073,45*70
02:00:05.171;A;$SDDPT,16.24,0.00,100.0*65
02:00:05.157;B;$GPGSV,3,3,12,26,11,178,43,27,85,114,48,30,06,313,32,32,08,133,45*7B
02:00:05.237;A;$SDDBT,53.28,f,16.24,M,8.88,F*33
02:00:05.301;B;$PGRME,2.9,M,3.6,M,4.6,M*22
02:00:05.362;B;$GPGLL,4721.463,N,00832.494,E,121138,A*23
02:00:05.451;B;$PGRMZ,1349,f,3*24
02:00:05.508;I;$POSMGYR,-599,-2009,444*6B
02:00:05.508;I;$POSMACC,-320,8556,14076*4A
02:00:05.494;B;$PGRMM,WGS 84*06
02:00:05.532;B;$GPBOD,,T,,M,,*47
02:00:05.593;B;$GPRTE,1,1,c,0*07
02:00:06.174;A;$SDDPT,16.50,0.00,100.0*66
02:00:06.241;A;$SDDBT,54.14,f,16.50,M,9.02,F*3B
02:00:06.509;I;$POSMGYR,1134,-229,1862*7F
02:00:06.509;I;$POSMACC,-88,11524,14984*42
02:00:06.393;B;$GPRMC,121139,A,4721.463,N,00832.494,E,000.0,253.6,110916,000.2,E*70
02:00:06.543;B;$GPRMB,A,,,,,,,,,,,,V*71
02:00:06.597;B;$GPGGA,121139,4721.463,N,00832.494,E,1,11,0.7,411.1,M,48.0,M,,*44
02:00:06.736;B;$GPGSA,A,3,07,08,10,11,15,16,18,21,26,27,,32,1.2,0.7,0.9*38
02:00:06.864;B;$GPGSV,3,1,12,07,05,289,33,08,52,302,43,10,64,106,49,11,18,274,42*77
02:00:07.012;B;$GPGSV,3,2,12,15,05,029,42,16,35,194,49,18,39,058,48,21,13,073,46*72
02:00:07.170;A;$SDDPT,16.18,0.00,100.0*6A
02:00:07.156;B;$GPGSV,3,3,12,26,11,178,43,27,85,114,48,30,06,313,33,32,08,133,46*79
02:00:07.236;A;$SDDBT,53.09,f,16.18,M,8.84,F*33
02:00:07.304;B;$PGRME,2.9,M,3.6,M,4.6,M*22
02:00:07.363;B;$GPGLL,4721.463,N,00832.494,E,121140,A*2C
02:00:07.454;B;$PGRMZ,1348,f,3*25
02:00:07.511;I;$POSMGYR,-2861,-396,867*69
02:00:07.511;I;$POSMACC,-2200,9548,13992*71
02:00:07.495;B;$PGRMM,WGS 84*06
02:00:07.534;B;$GPBOD,,T,,M,,*47
02:00:07.595;B;$GPRTE,1,1,c,0*07
02:00:08.173;A;$SDDPT,16.21,0.00,100.0*60
02:00:08.240;A;$SDDBT,53.18,f,16.21,M,8.86,F*3B
02:00:08.513;I;$POSMGYR,-906,286,-1160*64
02:00:08.513;I;$POSMACC,-568,9428,14128*43
02:00:08.396;B;$GPRMC,121141,A,4721.463,N,00832.493,E,000.0,253.6,110916,000.2,E*78
02:00:08.544;B;$GPRMB,A,,,,,,,,,,,,V*71
02:00:08.598;B;$GPGGA,121141,4721.463,N,00832.493,E,1,11,0.7,411.1,M,48.0,M,,*4C
02:00:08.737;B;$GPGSA,A,3,07,08,10,11,15,16,18,21,26,27,,32,1.2,0.7,0.9*38
02:00:08.867;B;$GPGSV,3,1,12,07,05,289,33,08,52,302,44,10,64,106,49,11,18,274,42*70
02:00:09.013;B;$GPGSV,3,2,12,15,05,029,42,16,35,194,49,18,39,058,48,21,13,073,46*72
02:00:09.175;A;$SDDPT,16.11,0.00,100.0*63
02:00:09.159;B;$GPGSV,3,3,12,26,11,178,43,27,85,114,48,30,06,313,32,32,08,133,45*7B
02:00:09.242;A;$SDDBT,52.86,f,16.11,M,8.81,F*39
02:00:09.305;B;$PGRME,2.9,M,3.6,M,4.6,M*22
02:00:09.365;B;$GPGLL,4721.463,N,00832.493,E,121142,A*29
02:00:09.457;B;$PGRMZ,1349,f,3*24
02:00:09.516;I;$POSMGYR,-540,-2547,1033*55
02:00:09.516;I;$POSMACC,888,8836,15332*67
02:00:09.498;B;$PGRMM,WGS 84*06
02:00:09.536;B;$GPBOD,,T,,M,,*47
02:00:09.598;B;$GPRTE,1,1,c,0*07
02:00:10.170;A;$SDDPT,16.17,0.00,100.0*65
02:00:10.236;A;$SDDBT,53.05,f,16.17,M,8.84,F*30
02:00:10.516;I;$POSMGYR,1152,3606,917*5A
02:00:10.516;I;$POSMACC,-96,11040,15016*49
02:00:10.397;B;$GPRMC,121143,A,4721.463,N,00832.492,E,000.0,253.6,110916,000.2,E*7B
02:00:10.545;B;$GPRMB,A,,,,,,,,,,,,V*71
02:00:10.600;B;$GPGGA,121143,4721.463,N,00832.492,E,1,11,0.7,411.1,M,48.0,M,,*4F
02:00:10.739;B;$GPGSA,A,3,07,08,10,11,15,16,18,21,26,27,,32,1.2,0.7,0.9*38
02:00:10.868;B;$GPGSV,3,1,12,07,05,289,33,08,52,302,44,10,64,106,49,11,18,274,43*71
02:00:11.015;B;$GPGSV,3,2,12,15,05,029,42,16,35,194,49,18,39,058,48,21,13,073,45*71
02:00:11.173;A;$SDDPT,16.11,0.00,100.0*63
02:00:11.160;B;$GPGSV,3,3,12,26,11,178,42,27,85,114,48,30,06,313,32,32,08,133,46*79
02:00:11.241;A;$SDDBT,52.86,f,16.11,M,8.81,F*39
02:00:11.307;B;$PGRME,2.9,M,3.7,M,4.7,M*22
02:00:11.367;B;$GPGLL,4721.463,N,00832.492,E,121144,A*2E
02:00:11.458;B;$PGRMZ,1349,f,3*24
02:00:11.518;I;$POSMGYR,-3862,-498,143*6D
02:00:11.518;I;$POSMACC,516,10100,14104*5E
02:00:11.499;B;$PGRMM,WGS 84*06
02:00:11.537;B;$GPBOD,,T,,M,,*47
02:00:11.599;B;$GPRTE,1,1,c,0*07
02:00:12.169;A;$SDDPT,16.14,0.00,100.0*66
02:00:12.235;A;$SDDBT,52.95,f,16.14,M,8.82,F*3D
02:00:12.520;I;$POSMGYR,-1942,1537,-917*50
02:00:12.520;I;$POSMACC,-8,10280,12980*70
02:00:12.399;B;$GPRMC,121145,A,4721.463,N,00832.492,E,000.0,253.6,110916,000.2,E*7D
02:00:12.548;B;$GPRMB,A,,,,,,,,,,,,V*71
02:00:12.602;B;$GPGGA,121145,4721.463,N,00832.492,E,1,11,0.7,411.1,M,48.0,M,,*49
02:00:12.741;B;$GPGSA,A,3,07,08,10,11,15,16,18,21,26,27,,32,1.2,0.7,0.9*38
02:00:12.869;B;$GPGSV,3,1,12,07,05,289,33,08,52,302,44,10,64,106,48,11,18,274,42*71
02:00:13.016;B;$GPGSV,3,2,12,15,05,029,41,16,35,194,49,18,39,058,48,21,13,073,45*72
02:00:13.170;A;$SDDPT,16.02,0.00,100.0*61
02:00:13.162;B;$GPGSV,3,3,12,26,11,178,42,27,85,114,48,30,06,313,32,32,08,133,46*79
02:00:13.238;A;$SDDBT,52.56,f,16.02,M,8.76,F*3E
02:00:13.310;B;$PGRME,2.9,M,3.6,M,4.6,M*22
02:00:13.369;B;$GPGLL,4721.463,N,00832.491,E,121146,A*2F
02:00:13.460;B;$PGRMZ,1349,f,3*24
02:00:13.520;I;$POSMGYR,233,737,-2034*48
02:00:13.520;I;$POSMACC,-1200,9232,15372*7A
02:00:13.501;B;$PGRMM,WGS 84*06
02:00:13.538;B;$GPBOD,,T,,M,,*47
02:00:13.600;B;$GPRTE,1,1,c,0*07
02:00:14.175;A;$SDDPT,16.08,0.00,100.0*6B
02:00:14.241;A;$SDDBT,52.76,f,16.08,M,8.79,F*39
02:00:14.522;I;$POSMGYR,-1069,-460,1819*5C
02:00:14.522;I;$POSMACC,-652,10524,14244*75
02:00:14.401;B;$GPRMC,121147,A,4721.463,N,00832.491,E,000.0,253.6,110916,000.2,E*7C
02:00:14.548;B;$GPRMB,A,,,,,,,,,,,,V*71
02:00:14.603;B;$GPGGA,121147,4721.463,N,00832.491,E,1,11,0.7,411.1,M,48.0,M,,*48
02:00:14.744;B;$GPGSA,A,3,07,08,10,11,15,16,18,21,26,27,,32,1.2,0.7,0.9*38
02:00:14.871;B;$GPGSV,3,1,12,07,05,289,33,08,52,302,44,10,64,106,49,11,18,274,41*73
02:00:15.016;B;$GPGSV,3,2,12,15,05,029,41,16,35,194,49,18,39,058,48,21,13,073,46*71
02:00:15.171;A;$SDDPT,16.09,0.00,100.0*6A
02:00:15.167;B;$GPGSV,3,3,12,26,11,178,42,27,85,114,48,30,06,313,32,32,08,133,46*79
02:00:15.236;A;$SDDBT,52.79,f,16.09,M,8.79,F*37
02:00:15.310;B;$PGRME,2.9,M,3.6,M,4.6,M*22
02:00:15.372;B;$GPGLL,4721.463,N,00832.491,E,121148,A*21
02:00:15.461;B;$PGRMZ,1349,f,3*24
02:00:15.523;I;$POSMGYR,-2553,-4947,-246*73
02:00:15.523;I;$POSMACC,-1252,8084,13760*72
02:00:15.504;B;$PGRMM,WGS 84*06
02:00:15.542;B;$GPBOD,,T,,M,,*47
02:00:15.603;B;$GPRTE,1,1,c,0*07
02:00:16.173;A;$SDDPT,16.00,0.00,100.0*63
02:00:16.240;A;$SDDBT,52.50,f,16.00,M,8.75,F*39
02:00:16.524;I;$POSMGYR,-361,3562,-887*60
02:00:16.524;I;$POSMACC,-168,10792,13664*75
02:00:16.403;B;$GPRMC,121149,A,4721.463,N,00832.490,E,000.0,253.6,110916,000.2,E*73
02:00:16.550;B;$GPRMB,A,,,,,,,,,,,,V*71
02:00:16.607;B;$GPGGA,121149,4721.463,N,00832.490,E,1,11,0.7,411.1,M,48.0,M,,*47
02:00:16.746;B;$GPGSA,A,3,07,08,10,11,15,16,18,21,26,27,,32,1.2,0.7,0.9*38
02:00:16.874;B;$GPGSV,3,1,12,07,05,289,34,08,52,302,44,10,64,106,49,11,18,274,41*74
02:00:17.019;B;$GPGSV,3,2,12,15,05,029,41,16,35,194,50,18,39,058,47,21,13,073,45*75
02:00:17.168;A;$SDDPT,15.96,0.00,100.0*6F
02:00:17.166;B;$GPGSV,3,3,12,26,11,178,42,27,85,114,48,30,06,313,32,32,08,133,46*79
02:00:17.235;A;$SDDBT,52.36,f,15.96,M,8.72,F*32
02:00:17.313;B;$PGRME,2.9,M,3.6,M,4.6,M*22
02:00:17.374;B;$GPGLL,4721.463,N,00832.490,E,121150,A*29
02:00:17.463;B;$PGRMZ,1349,f,3*24
02:00:17.525;I;$POSMGYR,-1285,914,737*4D
02:00:17.525;I;$POSMACC,-496,9560,13376*40
02:00:17.506;B;$PGRMM,WGS 84*06
02:00:17.542;B;$GPBOD,,T,,M,,*47
02:00:17.605;B;$GPRTE,1,1,c,0*07
02:00:18.171;A;$SDDPT,16.05,0.00,100.0*66
02:00:18.239;A;$SDDBT,52.66,f,16.05,M,8.77,F*3B
02:00:18.527;I;$POSMGYR,-1937,692,-216*65
02:00:18.527;I;$POSMACC,36,10344,14340*69
02:00:18.404;B;$GPRMC,121151,A,4721.463,N,00832.490,E,000.0,253.6,110916,000.2,E*7A
02:00:18.553;B;$GPRMB,A,,,,,,,,,,,,V*71
02:00:18.608;B;$GPGGA,121151,4721.463,N,00832.490,E,1,11,0.7,411.2,M,48.0,M,,*4D
02:00:18.749;B;$GPGSA,A,3,07,08,10,11,15,16,18,21,26,27,,32,1.2,0.7,0.9*38
02:00:18.875;B;$GPGSV,3,1,12,07,05,289,33,08,52,302,44,10,64,106,49,11,18,274,41*73
02:00:19.020;B;$GPGSV,3,2,12,15,05,029,41,16,35,194,50,18,39,058,48,21,13,073,45*7A
02:00:19.174;A;$SDDPT,15.93,0.00,100.0*6A
02:00:19.167;B;$GPGSV,3,3,12,26,11,178,43,27,85,114,48,30,06,313,33,32,08,133,46*79
02:00:19.240;A;$SDDBT,52.27,f,15.93,M,8.71,F*34
02:00:19.315;B;$PGRME,2.9,M,3.6,M,4.6,M*22
02:00:19.375;B;$GPGLL,4721.463,N,00832.489,E,121152,A*23
02:00:19.467;B;$PGRMZ,1349,f,3*24
02:00:19.530;I;$POSMGYR,-395,-2680,639*6E
02:00:19.530;I;$POSMACC,552,8076,13780*6A
02:00:19.506;B;$PGRMM,WGS 84*06
02:00:19.546;B;$GPBOD,,T,,M,,*47
02:00:19.608;B;$GPRTE,1,1,c,0*07
02:00:20.168;A;$SDDPT,15.90,0.00,100.0*69
02:00:20.238;A;$SDDBT,52.17,f,15.90,M,8.69,F*3D
02:00:20.531;I;$POSMGYR,-958,1370,-26*54
02:00:20.531;I;$POSMACC,-724,9436,14164*4E
02:00:20.408;B;$GPRMC,121153,A,4721.463,N,00832.489,E,000.0,253.6,110916,000.2,E*70
02:00:20.556;B;$GPRMB,A,,,,,,,,,,,,V*71
02:00:20.611;B;$GPGGA,121153,4721.463,N,00832.489,E,1,11,0.7,411.2,M,48.0,M,,*47
02:00:20.750;B;$GPGSA,A,3,07,08,10,11,15,16,18,21,26,27,,32,1.2,0.7,0.9*38
02:00:20.876;B;$GPGSV,3,1,12,07,05,289,33,08,52,302,44,10,64,106,49,11,18,274,42*70
02:00:21.024;B;$GPGSV,3,2,12,15,05,029,41,16,35,194,50,18,39,058,48,21,13,073,45*7A
02:00:21.173;A;$SDDPT,15.85,0.00,100.0*6D
02:00:21.171;B;$GPGSV,3,3,12,26,11,178,42,27,85,114,48,30,06,313,33,32,08,133,46*78
02:00:21.240;A;$SDDBT,52.00,f,15.85,M,8.66,F*30
02:00:21.319;B;$PGRME,2.9,M,3.7,M,4.7,M*22
02:00:21.378;B;$GPGLL,4721.464,N,00832.489,E,121154,A*22
02:00:21.467;B;$PGRMZ,1349,f,3*24
02:00:21.533;I;$POSMGYR,500,923,876*55
02:00:21.533;I;$POSMACC,-680,8476,15172*42
02:00:21.510;B;$PGRMM,WGS 84*06
02:00:21.547;B;$GPBOD,,T,,M,,*47
02:00:21.609;B;$GPRTE,1,1,c,0*07
02:00:22.168;A;$SDDPT,15.87,0.00,100.0*6F
02:00:22.235;A;$SDDBT,52.07,f,15.87,M,8.67,F*34
02:00:22.534;I;$POSMGYR,-3780,2402,-1169*66
02:00:22.534;I;$POSMACC,-492,9212,14156*41
02:00:22.409;B;$GPRMC,121155,A,4721.464,N,00832.488,E,000.0,253.6,110916,000.2,E*70
02:00:22.557;B;$GPRMB,A,,,,,,,,,,,,V*71
02:00:22.611;B;$GPGGA,121155,4721.464,N,00832.488,E,1,11,0.7,411.2,M,48.0,M,,*47
02:00:22.751;B;$GPGSA,A,3,07,08,10,11,15,16,18,21,26,27,,32,1.2,0.7,0.9*38
02:00:22.880;B;$GPGSV,3,1,12,07,05,289,34,08,52,302,44,10,64,106,49,11,18,274,43*76
02:00:23.026;B;$GPGSV,3,2,12,15,05,029,42,16,35,194,49,18,39,058,48,21,13,073,46*72
02:00:23.172;A;$SDDPT,15.82,0.00,100.0*6A
02:00:23.238;A;$SDDBT,51.90,f,15.82,M,8.65,F*3E
02:00:23.172;B;$GPGSV,3,3,12,26,11,178,43,27,85,114,48,30,06,313,32,32,08,133,46*78
02:00:23.320;B;$PGRME,2.9,M,3.6,M,4.6,M*22
02:00:23.378;B;$GPGLL,4721.464,N,00832.488,E,121156,A*21
02:00:23.470;B;$PGRMZ,1349,f,3*24
02:00:23.537;I;$POSMGYR,-1185,-2204,-5375*41
02:00:23.537;I;$POSMACC,120,10156,13844*56
02:00:23.511;B;$PGRMM,WGS 84*06
02:00:23.550;B;$GPBOD,,T,,M,,*47
02:00:23.611;B;$GPRTE,1,1,c,0*07
02:00:24.174;A;$SDDPT,15.81,0.00,100.0*69
02:00:24.242;A;$SDDBT,51.87,f,15.81,M,8.64,F*3A
02:00:24.537;I;$POSMGYR,-3095,1408,1576*4B
02:00:24.537;I;$POSMACC,-336,11444,13220*71
02:00:24.412;B;$GPRMC,121157,A,4721.464,N,00832.488,E,000.0,253.6,110916,000.2,E*72
02:00:24.559;B;$GPRMB,A,,,,,,,,,,,,V*71
02:00:24.613;B;$GPGGA,121157,4721.464,N,00832.488,E,1,11,0.7,411.1,M,48.0,M,,*46
02:00:24.753;B;$GPGSA,A,3,07,08,10,11,15,16,18,21,26,27,,32,1.2,0.7,0.9*38
02:00:24.882;B;$GPGSV,3,1,12,07,05,288,32,08,52,302,45,10,64,106,49,11,18,274,43*70
02:00:25.029;B;$GPGSV,3,2,12,15,05,029,42,16,35,194,49,18,39,058,48,21,13,073,46*72
02:00:25.169;A;$SDDPT,15.85,0.00,100.0*6D
02:00:25.236;A;$SDDBT,52.00,f,15.85,M,8.66,F*30
02:00:25.175;B;$GPGSV,3,3,12,26,11,178,43,27,85,114,48,30,06,313,34,32,08,133,45*7D
02:00:25.320;B;$PGRME,2.9,M,3.6,M,4.6,M*22
02:00:25.380;B;$GPGLL,4721.464,N,00832.488,E,121158,A*2F
02:00:25.472;B;$PGRMZ,1349,f,3*24
02:00:25.538;I;$POSMGYR,-1014,4895,365*78
02:00:25.538;I;$POSMACC,-524,8548,14708*49
02:00:25.512;B;$PGRMM,WGS 84*06
02:00:25.553;B;$GPBOD,,T,,M,,*47
02:00:25.614;B;$GPRTE,1,1,c,0*07
02:00:26.172;A;$SDDPT,15.69,0.00,100.0*6F
02:00:26.240;A;$SDDBT,51.48,f,15.69,M,8.58,F*30
02:00:26.541;I;$POSMGYR,-1548,-1262,-4007*40
02:00:26.541;I;$POSMACC,-604,11140,14080*7B
02:00:26.414;B;$GPRMC,121159,A,4721.464,N,00832.487,E,000.0,253.6,110916,000.2,E*73
02:00:26.561;B;$GPRMB,A,,,,,,,,,,,,V*71
02:00:26.614;B;$GPGGA,121159,4721.464,N,00832.487,E,1,11,0.7,411.1,M,48.0,M,,*47
02:00:26.755;B;$GPGSA,A,3,07,08,10,11,15,16,18,21,26,27,,32,1.2,0.7,0.9*38
02:00:26.884;B;$GPGSV,3,1,12,07,05,288,31,08,52,302,45,10,64,106,49,11,18,274,43*73
02:00:27.028;B;$GPGSV,3,2,12,15,05,029,42,16,35,194,49,18,39,058,48,21,13,073,45*71
02:00:27.168;A;$SDDPT,15.76,0.00,100.0*61
02:00:27.235;A;$SDDBT,51.71,f,15.76,M,8.61,F*3E
02:00:27.176;B;$GPGSV,3,3,12,26,11,178,42,27,85,114,48,30,06,313,34,32,08,133,45*7C
02:00:27.321;B;$PGRME,2.9,M,3.6,M,4.6,M*22
02:00:27.381;B;$GPGLL,4721.464,N,00832.487,E,121200,A*2E
02:00:27.472;B;$PGRMZ,1349,f,3*24
02:00:27.543;I;$POSMGYR,-4775,3177,3977*45
02:00:27.543;I;$POSMACC,-836,9308,12252*48
02:00:27.514;B;$PGRMM,WGS 84*06
02:00:27.557;B;$GPBOD,,T,,M,,*47
02:00:27.613;B;$GPRTE,1,1,c,0*07
02:00:28.172;A;$SDDPT,15.78,0.00,100.0*6F
02:00:28.238;A;$SDDBT,51.77,f,15.78,M,8.62,F*35
02:00:28.547;I;$POSMGYR,-1902,-2690,4291*68
02:00:28.547;I;$POSMACC,-636,10704,14840*79
02:00:28.414;B;$GPRMC,121201,A,4721.464,N,00832.487,E,000.0,253.6,110916,000.2,E*7D
02:00:28.562;B;$GPRMB,A,,,,,,,,,,,,V*71
02:00:28.617;B;$GPGGA,121201,4721.464,N,00832.487,E,1,11,0.8,411.1,M,48.0,M,,*46
02:00:28.756;B;$GPGSA,A,3,07,08,10,11,15,16,18,21,26,27,,32,1.2,0.8,1.0*3F
02:00:28.886;B;$GPGSV,3,1,12,07,05,288,32,08,53,302,44,10,64,106,49,11,18,274,43*70
02:00:29.032;B;$GPGSV,3,2,12,15,05,029,43,16,35,194,49,18,39,058,48,21,13,073,46*73
02:00:29.172;A;$SDDPT,15.73,0.00,100.0*64
02:00:29.241;A;$SDDBT,51.61,f,15.73,M,8.60,F*3B
02:00:29.177;B;$GPGSV,3,3,12,26,11,178,42,27,85,114,48,30,06,313,33,32,08,133,45*7B
02:00:29.326;B;$PGRME,2.9,M,3.6,M,4.6,M*22
02:00:29.384;B;$GPGLL,4721.464,N,00832.486,E,121202,A*2D
02:00:29.473;B;$PGRMZ,1349,f,3*24
02:00:29.549;I;$POSMGYR,3291,-5655,-1573*6B
02:00:29.549;I;$POSMACC,-24,9940,13992*73
02:00:29.516;B;$PGRMM,WGS 84*06
02:00:29.562;B;$GPBOD,,T,,M,,*47
02:00:29.617;B;$GPRTE,1,1,c,0*07
02:00:30.169;A;$SDDPT,15.67,0.00,100.0*61
02:00:30.235;A;$SDDBT,51.41,f,15.67,M,8.56,F*39
02:00:30.553;I;$POSMGYR,1296,4662,1662*68
02:00:30.553;I;$POSMACC,-4,10172,14612*70
02:00:30.416;B;$GPRMC,121203,A,4721.464,N,00832.486,E,000.0,253.6,110916,000.2,E*7E
02:00:30.567;B;$GPRMB,A,,,,,,,,,,,,V*71
02:00:30.619;B;$GPGGA,121203,4721.464,N,00832.486,E,1,11,0.8,411.1,M,48.0,M,,*45
02:00:30.758;B;$GPGSA,A,3,07,08,10,11,15,16,18,21,26,27,,32,1.2,0.8,1.0*3F
02:00:30.886;B;$GPGSV,3,1,12,07,05,288,32,08,53,302,44,10,64,106,49,11,18,274,43*70
02:00:31.033;B;$GPGSV,3,2,12,15,05,029,42,16,35,194,49,18,39,058,49,21,13,073,46*73
02:00:31.171;A;$SDDPT,15.69,0.00,100.0*6F
02:00:31.238;A;$SDDBT,51.48,f,15.69,M,8.58,F*30
02:00:31.179;B;$GPGSV,3,3,12,26,11,178,42,27,85,114,48,30,06,313,34,32,08,133,45*7C
02:00:31.325;B;$PGRME,2.9,M,3.7,M,4.7,M*22
02:00:31.386;B;$GPGLL,4721.464,N,00832.486,E,121204,A*2B
02:00:31.477;B;$PGRMZ,1349,f,3*24
02:00:31.517;B;$PGRMM,WGS 84*06
02:00:31.556;I;$POSMGYR,-2824,-1252,-3105*43
02:00:31.556;I;$POSMACC,1248,11264,15180*6E
02:00:31.556;B;$GPBOD,,T,,M,,*47
02:00:31.619;B;$GPRTE,1,1,c,0*07
02:00:32.167;A;$SDDPT,15.94,0.00,100.0*6D
02:00:32.235;A;$SDDBT,52.30,f,15.94,M,8.71,F*35
02:00:32.558;I;$POSMGYR,-3488,-1091,1499*6A
02:00:32.558;I;$POSMACC,-1360,9704,13672*7E
02:00:32.419;B;$GPRMC,121205,A,4721.464,N,00832.486,E,000.0,253.6,110916,000.2,E*78
02:00:32.571;B;$GPRMB,A,,,,,,,,,,,,V*71
02:00:32.620;B;$GPGGA,121205,4721.464,N,00832.486,E,1,11,0.8,411.4,M,48.0,M,,*46
02:00:32.760;B;$GPGSA,A,3,07,08,10,11,15,16,18,21,26,27,,32,1.2,0.8,1.0*3F
02:00:32.888;B;$GPGSV,3,1,12,07,05,288,32,08,53,302,43,10,64,106,49,11,18,274,42*76
02:00:33.035;B;$GPGSV,3,2,12,15,05,029,42,16,35,194,49,18,39,058,48,21,13,073,46*72
02:00:33.171;A;$SDDPT,15.57,0.00,100.0*62
02:00:33.236;A;$SDDBT,51.08,f,15.57,M,8.51,F*30
02:00:33.182;B;$GPGSV,3,3,12,26,11,178,43,27,85,114,48,30,06,313,32,32,08,133,45*7B
02:00:33.327;B;$PGRME,2.9,M,3.7,M,4.7,M*22
02:00:33.387;B;$GPGLL,4721.464,N,00832.486,E,121206,A*29
02:00:33.478;B;$PGRMZ,1350,f,3*2C
02:00:33.519;B;$PGRMM,WGS 84*06
02:00:33.558;I;$POSMGYR,-1031,2575,-2988*6C
02:00:33.558;I;$POSMACC,304,9964,12280*60
02:00:33.558;B;$GPBOD,,T,,M,,*47
02:00:33.620;B;$GPRTE,1,1,c,0*07
02:00:34.172;A;$SDDPT,15.67,0.00,100.0*61
02:00:34.240;A;$SDDBT,51.41,f,15.67,M,8.56,F*39
02:00:34.561;I;$POSMGYR,934,-165,-3836*63
02:00:34.561;I;$POSMACC,-344,11300,14080*7C
02:00:34.420;B;$GPRMC,121207,A,4721.464,N,00832.485,E,000.0,253.6,110916,000.2,E*79
02:00:34.575;B;$GPRMB,A,,,,,,,,,,,,V*71
02:00:34.624;B;$GPGGA,121207,4721.464,N,00832.485,E,1,11,0.8,411.4,M,48.0,M,,*47
02:00:34.763;B;$GPGSA,A,3,07,08,10,11,15,16,18,21,26,27,,32,1.2,0.8,1.0*3F
02:00:34.890;B;$GPGSV,3,1,12,07,05,288,32,08,53,302,44,10,64,106,49,11,18,274,42*71
02:00:35.039;B;$GPGSV,3,2,12,15,05,029,42,16,35,194,49,18,39,058,49,21,13,073,46*73
02:00:35.169;A;$SDDPT,15.61,0.00,100.0*67
02:00:35.235;A;$SDDBT,51.22,f,15.61,M,8.53,F*3F
02:00:35.183;B;$GPGSV,3,3,12,26,11,178,42,27,85,114,48,30,06,313,34,32,08,133,45*7C
02:00:35.331;B;$PGRME,2.9,M,3.6,M,4.6,M*22
02:00:35.391;B;$GPGLL,4721.464,N,00832.485,E,121208,A*24
02:00:35.480;B;$PGRMZ,1350,f,3*2C
02:00:35.523;B;$PGRMM,WGS 84*06
02:00:35.563;I;$POSMGYR,-1306,2864,1837*4D
02:00:35.563;I;$POSMACC,48,10588,12704*64
02:00:35.560;B;$GPBOD,,T,,M,,*47
02:00:35.622;B;$GPRTE,1,1,c,0*07
02:00:36.171;A;$SDDPT,15.51,0.00,100.0*64
02:00:36.239;A;$SDDBT,50.89,f,15.51,M,8.48,F*36
02:00:36.564;I;$POSMGYR,1012,1553,980*50
02:00:36.564;I;$POSMACC,-1192,9260,13792*79
02:00:36.422;B;$GPRMC,121209,A,4721.464,N,00832.485,E,000.0,253.6,110916,000.2,E*77
02:00:36.578;B;$GPRMB,A,,,,,,,,,,,,V*71
02:00:36.625;B;$GPGGA,121209,4721.464,N,00832.485,E,1,11,0.8,411.4,M,48.0,M,,*49
02:00:36.766;B;$GPGSA,A,3,07,08,10,11,15,16,18,21,26,27,,32,1.2,0.8,1.0*3F
02:00:36.892;B;$GPGSV,3,1,12,07,05,288,32,08,53,302,43,10,64,103,49,11,18,274,42*73
02:00:37.039;B;$GPGSV,3,2,12,15,05,029,42,16,35,194,49,18,39,058,48,21,13,073,46*72
02:00:37.168;A;$SDDPT,15.61,0.00,100.0*67
02:00:37.234;A;$SDDBT,51.22,f,15.61,M,8.53,F*3F
02:00:37.185;B;$GPGSV,3,3,12,26,11,178,43,27,85,114,48,30,06,313,31,32,08,133,45*78
02:00:37.331;B;$PGRME,2.9,M,3.6,M,4.6,M*22
02:00:37.392;B;$GPGLL,4721.464,N,00832.485,E,121210,A*2D
02:00:37.482;B;$PGRMZ,1350,f,3*2C
02:00:37.523;B;$PGRMM,WGS 84*06
02:00:37.566;I;$POSMGYR,-1546,-3701,-5919*4B
02:00:37.566;I;$POSMACC,-580,9592,14056*4D
02:00:37.562;B;$GPBOD,,T,,M,,*47
02:00:37.623;B;$GPRTE,1,1,c,0*07
02:00:38.169;A;$SDDPT,15.48,0.00,100.0*6C
02:00:38.236;A;$SDDBT,50.79,f,15.48,M,8.46,F*3F
02:00:38.423;B;$GPRMC,121211,A,4721.464,N,00832.484,E,000.0,253.6,110916,000.2,E*7F
02:00:38.569;I;$POSMGYR,34,3906,2364*69
02:00:38.569;I;$POSMACC,-808,8988,14192*4F
02:00:38.581;B;$GPRMB,A,,,,,,,,,,,,V*71
02:00:38.626;B;$GPGGA,121211,4721.464,N,00832.484,E,1,11,0.8,411.4,M,48.0,M,,*41
02:00:38.767;B;$GPGSA,A,3,07,08,10,11,15,16,18,21,26,27,,32,1.2,0.8,1.0*3F
02:00:38.894;B;$GPGSV,3,1,12,07,05,288,31,08,53,302,44,10,64,103,48,11,18,274,42*76
02:00:39.040;B;$GPGSV,3,2,12,15,05,029,43,16,35,194,48,18,39,058,49,21,13,073,46*73
02:00:39.172;A;$SDDPT,15.43,0.00,100.0*67
02:00:39.240;A;$SDDBT,50.62,f,15.43,M,8.43,F*3B
02:00:39.186;B;$GPGSV,3,3,12,26,11,178,42,27,85,114,48,30,06,313,33,32,08,133,45*7B
02:00:39.334;B;$PGRME,2.9,M,3.7,M,4.7,M*22
02:00:39.395;B;$GPGLL,4721.464,N,00832.484,E,121212,A*2E
02:00:39.484;B;$PGRMZ,1350,f,3*2C
02:00:39.525;B;$PGRMM,WGS 84*06
02:00:39.568;I;$POSMGYR,395,990,-570*71
02:00:39.568;I;$POSMACC,492,9672,13396*67
02:00:39.564;B;$GPBOD,,T,,M,,*47
02:00:39.625;B;$GPRTE,1,1,c,0*07
02:00:40.168;A;$SDDPT,15.54,0.00,100.0*61
02:00:40.235;A;$SDDBT,50.99,f,15.54,M,8.49,F*33
02:00:40.569;I;$POSMGYR,55,-673,685*45
02:00:40.569;I;$POSMACC,-664,9984,13512*4D
02:00:40.427;B;$GPRMC,121213,A,4721.464,N,00832.484,E,000.0,253.6,110916,000.2,E*7D
02:00:40.584;B;$GPRMB,A,,,,,,,,,,,,V*71
02:00:40.629;B;$GPGGA,121213,4721.464,N,00832.484,E,1,11,0.8,411.6,M,48.0,M,,*41
02:00:40.768;B;$GPGSA,A,3,07,08,10,11,15,16,18,21,26,27,,32,1.2,0.8,1.0*3F
02:00:40.897;B;$GPGSV,3,1,12,07,05,288,33,08,53,302,43,10,64,103,49,11,18,274,42*72
02:00:41.043;B;$GPGSV,3,2,12,15,05,029,42,16,35,194,49,18,39,058,49,21,13,073,46*73
02:00:41.170;A;$SDDPT,15.40,0.00,100.0*64
02:00:41.240;A;$SDDBT,50.53,f,15.40,M,8.42,F*3B
02:00:41.189;B;$GPGSV,3,3,12,26,11,178,42,27,85,114,48,30,06,313,33,32,08,133,45*7B
02:00:41.335;B;$PGRME,2.9,M,3.6,M,4.6,M*22
02:00:41.396;B;$GPGLL,4721.464,N,00832.484,E,121214,A*28
02:00:41.485;B;$PGRMZ,1351,f,3*2D
02:00:41.528;B;$PGRMM,WGS 84*06
02:00:41.571;I;$POSMGYR,-13,-3819,590*5C
02:00:41.571;I;$POSMACC,688,9752,14896*61
02:00:41.567;B;$GPBOD,,T,,M,,*47
02:00:41.628;B;$GPRTE,1,1,c,0*07
02:00:42.167;A;$SDDPT,15.45,0.00,100.0*61
02:00:42.235;A;$SDDBT,50.69,f,15.45,M,8.44,F*31
02:00:42.427;B;$GPRMC,121215,A,4721.464,N,00832.483,E,000.0,253.6,110916,000.2,E*7C
02:00:42.575;I;$POSMGYR,628,719,-297*73
02:00:42.575;I;$POSMACC,-96,9040,14188*77
02:00:42.575;B;$GPRMB,A,,,,,,,,,,,,V*71
02:00:42.630;B;$GPGGA,121215,4721.464,N,00832.483,E,1,11,0.8,411.7,M,48.0,M,,*41
02:00:42.770;B;$GPGSA,A,3,07,08,10,11,15,16,18,21,26,27,,32,1.2,0.8,1.0*3F
02:00:42.898;B;$GPGSV,3,1,12,07,05,288,32,08,53,302,43,10,64,103,49,11,18,274,42*73
02:00:43.045;B;$GPGSV,3,2,12,15,05,029,42,16,35,194,49,18,39,058,48,21,13,073,46*72
02:00:43.170;A;$SDDPT,15.39,0.00,100.0*6A
02:00:43.237;A;$SDDBT,50.49,f,15.39,M,8.41,F*3D
02:00:43.190;B;$GPGSV,3,3,12,26,11,178,42,27,85,114,48,30,06,313,31,32,08,133,45*79
02:00:43.336;B;$PGRME,2.9,M,3.6,M,4.6,M*22
02:00:43.397;B;$GPGLL,4721.464,N,00832.483,E,121216,A*2D
02:00:43.488;B;$PGRMZ,1351,f,3*2D
02:00:43.529;B;$PGRMM,WGS 84*06
02:00:43.576;I;$POSMGYR,-2137,554,3276*7F
02:00:43.576;I;$POSMACC,-408,9732,14508*4A
02:00:43.568;B;$GPBOD,,T,,M,,*47
02:00:43.628;B;$GPRTE,1,1,c,0*07
02:00:44.171;A;$SDDPT,15.31,0.00,100.0*62
02:00:44.238;A;$SDDBT,50.23,f,15.31,M,8.37,F*38
02:00:44.430;B;$GPRMC,121217,A,4721.464,N,00832.483,E,000.0,253.6,110916,000.2,E*7E
02:00:44.578;I;$POSMGYR,1671,782,486*67
02:00:44.578;I;$POSMACC,1196,9064,14424*5F
02:00:44.578;B;$GPRMB,A,,,,,,,,,,,,V*71
02:00:44.634;B;$GPGGA,121217,4721.464,N,00832.483,E,1,11,0.8,411.7,M,48.0,M,,*43
02:00:44.773;B;$GPGSA,A,3,07,08,10,11,15,16,18,21,26,27,,32,1.2,0.8,1.0*3F
02:00:44.903;B;$GPGSV,3,1,12,07,05,288,31,08,53,302,43,10,64,103,49,11,18,274,42*70
02:00:45.046;B;$GPGSV,3,2,12,15,05,029,42,16,35,194,49,18,39,058,48,21,13,073,46*72
02:00:45.167;A;$SDDPT,15.42,0.00,100.0*66
02:00:45.236;A;$SDDBT,50.59,f,15.42,M,8.43,F*32
02:00:45.193;B;$GPGSV,3,3,12,26,11,178,43,27,85,114,48,30,06,313,31,32,08,133,45*78
02:00:45.340;B;$PGRME,2.9,M,3.7,M,4.7,M*22
02:00:45.401;B;$GPGLL,4721.464,N,00832.482,E,121218,A*22
02:00:45.492;B;$PGRMZ,1351,f,3*2D
02:00:45.534;B;$PGRMM,WGS 84*06
02:00:45.579;I;$POSMGYR,-1757,-3443,-2652*4B
02:00:45.579;I;$POSMACC,48,10552,14708*69
02:00:45.570;B;$GPBOD,,T,,M,,*47
02:00:45.632;B;$GPRTE,1,1,c,0*07
02:00:46.171;A;$SDDPT,15.27,0.00,100.0*65
02:00:46.237;A;$SDDBT,50.10,f,15.27,M,8.35,F*3D
02:00:46.431;B;$GPRMC,121219,A,4721.464,N,00832.482,E,000.0,253.6,110916,000.2,E*71
02:00:46.581;I;$POSMGYR,1532,-676,785*44
02:00:46.581;I;$POSMACC,404,11168,15152*51
02:00:46.579;B;$GPRMB,A,,,,,,,,,,,,V*71
02:00:46.635;B;$GPGGA,121219,4721.464,N,00832.482,E,1,11,0.8,411.7,M,48.0,M,,*4C
02:00:46.776;B;$GPGSA,A,3,07,08,10,11,15,16,18,21,26,27,,32,1.2,0.8,1.0*3F
02:00:46.902;B;$GPGSV,3,1,12,07,05,288,30,08,53,302,44,10,64,103,49,11,18,274,42*76
02:00:47.048;B;$GPGSV,3,2,12,15,05,029,42,16,35,194,49,18,39,058,48,21,13,073,46*72
02:00:47.166;A;$SDDPT,15.97,0.00,100.0*6E
02:00:47.233;A;$SDDBT,52.40,f,15.97,M,8.73,F*33
02:00:47.194;B;$GPGSV,3,3,12,26,11,178,42,27,85,114,48,30,06,313,32,32,08,133,45*7A
02:00:47.341;B;$PGRME,2.9,M,3.7,M,4.7,M*22
02:00:47.403;B;$GPGLL,4721.464,N,00832.482,E,121220,A*29
02:00:47.492;B;$PGRMZ,1351,f,3*2D
02:00:47.533;B;$PGRMM,WGS 84*06
02:00:47.583;I;$POSMGYR,413,5166,3562*51
02:00:47.583;I;$POSMACC,-212,11132,14176*75
02:00:47.571;B;$GPBOD,,T,,M,,*47
02:00:47.633;B;$GPRTE,1,1,c,0*07
02:00:48.169;A;$SDDPT,15.25,0.00,100.0*67
02:00:48.236;A;$SDDBT,50.03,f,15.25,M,8.33,F*3B
02:00:48.433;B;$GPRMC,121221,A,4721.464,N,00832.481,E,000.0,253.6,110916,000.2,E*79
02:00:48.583;I;$POSMGYR,683,3,2397*60
02:00:48.583;I;$POSMACC,-1896,11016,14760*44
02:00:48.581;B;$GPRMB,A,,,,,,,,,,,,V*71
02:00:48.635;B;$GPGGA,121221,4721.464,N,00832.481,E,1,11,0.8,411.7,M,48.0,M,,*44
02:00:48.775;B;$GPGSA,A,3,07,08,10,11,15,16,18,21,26,27,,32,1.2,0.8,1.0*3F
02:00:48.903;B;$GPGSV,3,1,12,07,05,288,31,08,53,302,44,10,64,103,49,11,18,274,42*77
02:00:49.049;B;$GPGSV,3,2,12,15,05,029,41,16,35,194,49,18,39,058,49,21,13,073,46*70
02:00:49.172;A;$SDDPT,15.27,0.00,100.0*65
02:00:49.239;A;$SDDBT,50.10,f,15.27,M,8.35,F*3D
02:00:49.196;B;$GPGSV,3,3,12,26,11,178,42,27,85,114,48,30,06,313,33,32,08,133,45*7B
02:00:49.341;B;$PGRME,2.9,M,3.6,M,4.6,M*22
02:00:49.402;B;$GPGLL,4721.464,N,00832.481,E,121222,A*28
02:00:49.494;B;$PGRMZ,1350,f,3*2C
02:00:49.533;B;$PGRMM,WGS 84*06
02:00:49.584;I;$POSMGYR,2978,-1969,-2792*6C
02:00:49.584;I;$POSMACC,188,11492,15620*52
02:00:49.572;B;$GPBOD,,T,,M,,*47
02:00:49.635;B;$GPRTE,1,1,c,0*07
02:00:50.166;A;$SDDPT,15.22,0.00,100.0*60
02:00:50.236;A;$SDDBT,49.94,f,15.22,M,8.32,F*3B
02:00:50.434;B;$GPRMC,121223,A,4721.464,N,00832.481,E,000.0,253.6,110916,000.2,E*7B
02:00:50.586;I;$POSMGYR,-27,-2225,2230*60
02:00:50.586;I;$POSMACC,564,10936,14460*51
02:00:50.583;B;$GPRMB,A,,,,,,,,,,,,V*71
02:00:50.636;B;$GPGGA,121223,4721.464,N,00832.481,E,1,11,0.8,411.6,M,48.0,M,,*47
02:00:50.779;B;$GPGSA,A,3,07,08,10,11,15,16,18,21,26,27,,32,1.2,0.8,1.0*3F
02:00:50.905;B;$GPGSV,3,1,12,07,05,288,31,08,53,302,45,10,64,103,48,11,18,274,41*74
02:00:51.051;B;$GPGSV,3,2,12,15,05,029,42,16,35,194,49,18,39,058,49,21,13,073,46*73
02:00:51.169;A;$SDDPT,15.28,0.00,100.0*6A
02:00:51.237;A;$SDDBT,50.13,f,15.28,M,8.35,F*31
02:00:51.198;B;$GPGSV,3,3,12,26,11,178,41,27,85,114,48,30,06,313,35,32,08,133,45*7E
02:00:51.345;B;$PGRME,2.9,M,3.7,M,4.7,M*22
02:00:51.405;B;$GPGLL,4721.464,N,00832.481,E,121224,A*2E
02:00:51.494;B;$PGRMZ,1351,f,3*2D
02:00:51.537;B;$PGRMM,WGS 84*06
02:00:51.588;I;$POSMGYR,-617,2453,-200*63
02:00:51.588;I;$POSMACC,1080,12116,16652*66
02:00:51.574;B;$GPBOD,,T,,M,,*47
02:00:51.636;B;$GPRTE,1,1,c,0*07
02:00:52.167;A;$SDDPT,15.18,0.00,100.0*69
02:00:52.234;A;$SDDBT,49.80,f,15.18,M,8.30,F*35
02:00:52.436;B;$GPRMC,121225,A,4721.464,N,00832.480,E,000.0,253.6,110916,000.2,E*7C
02:00:52.589;I;$POSMGYR,199,-225,-574*53
02:00:52.589;I;$POSMACC,-1356,10272,14868*45
02:00:52.585;B;$GPRMB,A,,,,,,,,,,,,V*71
02:00:52.640;B;$GPGGA,121225,4721.464,N,00832.480,E,1,11,0.8,411.5,M,48.0,M,,*43
02:00:52.780;B;$GPGSA,A,3,07,08,10,11,15,16,18,21,26,27,,32,1.2,0.8,1.0*3F
02:00:52.907;B;$GPGSV,3,1,12,07,05,288,31,08,53,302,45,10,64,103,48,11,18,274,42*77
02:00:53.056;B;$GPGSV,3,2,12,15,05,029,42,16,35,194,48,18,39,058,49,21,13,073,46*72
02:00:53.168;A;$SDDPT,15.18,0.00,100.0*69
02:00:53.236;A;$SDDBT,49.80,f,15.18,M,8.30,F*35
02:00:53.199;B;$GPGSV,3,3,12,26,11,178,41,27,85,114,48,30,06,313,34,32,08,133,45*7F
02:00:53.347;B;$PGRME,2.9,M,3.7,M,4.7,M*22
02:00:53.407;B;$GPGLL,4721.464,N,00832.480,E,121226,A*2D
02:00:53.496;B;$PGRMZ,1350,f,3*2C
02:00:53.539;B;$PGRMM,WGS 84*06
02:00:53.591;I;$POSMGYR,-945,680,-205*50
02:00:53.591;I;$POSMACC,320,11908,16688*5D
02:00:53.575;B;$GPBOD,,T,,M,,*47
02:00:53.639;B;$GPRTE,1,1,c,0*07
02:00:54.170;A;$SDDPT,15.16,0.00,100.0*67
02:00:54.238;A;$SDDBT,49.74,f,15.16,M,8.29,F*38
02:00:54.440;B;$GPRMC,121227,A,4721.464,N,00832.480,E,000.0,253.6,110916,000.2,E*7E
02:00:54.591;I;$POSMGYR,-2770,4008,-2291*67
02:00:54.591;I;$POSMACC,-536,10968,14308*79
02:00:54.588;B;$GPRMB,A,,,,,,,,,,,,V*71
02:00:54.641;B;$GPGGA,121227,4721.464,N,00832.480,E,1,11,0.8,411.5,M,48.0,M,,*41
02:00:54.782;B;$GPGSA,A,3,07,08,10,11,15,16,18,21,26,27,,32,1.3,0.8,1.0*3E
02:00:54.908;B;$GPGSV,3,1,12,07,05,288,31,08,53,302,45,10,64,103,48,11,18,274,41*74
02:00:55.057;B;$GPGSV,3,2,12,15,05,029,42,16,35,194,48,18,39,058,49,21,13,073,46*72
02:00:55.166;A;$SDDPT,15.15,0.00,100.0*64
02:00:55.235;A;$SDDBT,49.71,f,15.15,M,8.28,F*3F
02:00:55.203;B;$GPGSV,3,3,12,26,11,178,40,27,85,114,48,30,06,313,34,32,08,133,45*7E
02:00:55.350;B;$PGRME,2.9,M,3.7,M,4.7,M*22
02:00:55.410;B;$GPGLL,4721.464,N,00832.480,E,121228,A*23
02:00:55.501;B;$PGRMZ,1350,f,3*2C
02:00:55.541;B;$PGRMM,WGS 84*06
02:00:55.593;I;$POSMGYR,-2192,-985,2343*5B
02:00:55.593;I;$POSMACC,-356,10508,13820*75
02:00:55.580;B;$GPBOD,,T,,M,,*47
02:00:55.640;B;$GPRTE,1,1,c,0*07
02:00:56.170;A;$SDDPT,15.09,0.00,100.0*69
02:00:56.237;A;$SDDBT,49.51,f,15.09,M,8.25,F*3D
02:00:56.441;B;$GPRMC,121229,A,4721.464,N,00832.479,E,000.0,253.6,110916,000.2,E*76
02:00:56.594;I;$POSMGYR,-176,-1111,-2324*7B
02:00:56.594;I;$POSMACC,904,11104,12628*5B
02:00:56.588;B;$GPRMB,A,,,,,,,,,,,,V*71
02:00:56.644;B;$GPGGA,121229,4721.464,N,00832.479,E,1,11,0.8,411.6,M,48.0,M,,*4A
02:00:56.783;B;$GPGSA,A,3,07,08,10,11,15,16,18,21,26,27,,32,1.3,0.8,1.0*3E
02:00:56.910;B;$GPGSV,3,1,12,07,05,288,30,08,53,302,44,10,64,103,48,11,18,274,41*74
02:00:57.056;B;$GPGSV,3,2,12,15,05,029,42,16,35,194,48,18,39,058,49,21,13,073,46*72
02:00:57.166;A;$SDDPT,15.04,0.00,100.0*64
02:00:57.233;A;$SDDBT,49.35,f,15.04,M,8.22,F*35
02:00:57.202;B;$GPGSV,3,3,12,26,11,178,41,27,85,114,48,30,06,313,33,32,08,133,45*78
02:00:57.351;B;$PGRME,2.9,M,3.7,M,4.7,M*22
02:00:57.411;B;$GPGLL,4721.464,N,00832.479,E,121230,A*2C
02:00:57.500;B;$PGRMZ,1350,f,3*2C
02:00:57.543;B;$PGRMM,WGS 84*06
02:00:57.597;I;$POSMGYR,-2715,763,-2019*58
02:00:57.597;I;$POSMACC,196,7512,12652*61
02:00:57.580;B;$GPBOD,,T,,M,,*47
02:00:57.641;B;$GPRTE,1,1,c,0*07
02:00:58.169;A;$SDDPT,15.07,0.00,100.0*67
02:00:58.236;A;$SDDBT,49.44,f,15.07,M,8.24,F*36
02:00:58.443;B;$GPRMC,121231,A,4721.464,N,00832.479,E,000.0,253.6,110916,000.2,E*7F
02:00:58.599;I;$POSMGYR,1109,4495,5204*67
02:00:58.599;I;$POSMACC,564,11012,13764*5F
02:00:58.591;B;$GPRMB,A,,,,,,,,,,,,V*71
02:00:58.644;B;$GPGGA,121231,4721.464,N,00832.479,E,1,11,0.8,411.7,M,48.0,M,,*42
02:00:58.785;B;$GPGSA,A,3,07,08,10,11,15,16,18,21,26,27,,32,1.3,0.8,1.0*3E
02:00:58.911;B;$GPGSV,3,1,12,07,05,288,31,08,53,302,45,10,64,103,48,11,18,274,42*77
02:00:59.060;B;$GPGSV,3,2,12,15,05,029,42,16,35,194,48,18,39,058,48,21,13,073,46*73
02:00:59.171;A;$SDDPT,14.92,0.00,100.0*6A
02:00:59.249;A;$SDDBT,48.95,f,14.92,M,8.15,F*34
02:00:59.206;B;$GPGSV,3,3,12,26,11,178,41,27,85,114,48,30,06,313,34,32,08,133,45*7F
02:00:59.351;B;$PGRME,2.9,M,3.7,M,4.7,M*22
02:00:59.411;B;$GPGLL,4721.464,N,00832.478,E,121232,A*2F
02:00:59.502;B;$PGRMZ,1350,f,3*2C
02:00:59.543;B;$PGRMM,WGS 84*06
02:00:59.601;I;$POSMGYR,-3676,-1244,45*67
02:00:59.601;I;$POSMACC,-880,11128,13644*7E
02:00:59.582;B;$GPBOD,,T,,M,,*47
02:00:59.643;B;$GPRTE,1,1,c,0*07
02:01:00.167;A;$SDDPT,15.10,0.00,100.0*61
02:01:00.234;A;$SDDBT,49.54,f,15.10,M,8.25,F*30
02:01:00.444;B;$GPRMC,121233,A,4721.464,N,00832.478,E,000.0,253.6,110916,000.2,E*7C
02:01:00.604;I;$POSMGYR,-2414,-3344,-1639*42
02:01:00.604;I;$POSMACC,-872,8972,13020*48
02:01:00.593;B;$GPRMB,A,,,,,,,,,,,,V*71
02:01:00.648;B;$GPGGA,121233,4721.464,N,00832.478,E,1,11,0.8,411.6,M,48.0,M,,*40
02:01:00.787;B;$GPGSA,A,3,07,08,10,11,15,16,18,21,26,27,,32,1.3,0.8,1.0*3E
02:01:00.913;B;$GPGSV,3,1,12,07,05,288,31,08,53,302,44,10,64,103,48,11,18,274,42*76
02:01:01.060;B;$GPGSV,3,2,12,15,05,029,42,16,34,194,48,18,39,058,48,21,13,073,46*72
02:01:01.169;A;$SDDPT,14.91,0.00,100.0*69
02:01:01.237;A;$SDDBT,48.92,f,14.91,M,8.15,F*30
02:01:01.209;B;$GPGSV,3,3,12,26,11,178,41,27,85,114,48,30,06,313,33,32,08,133,45*78
02:01:01.353;B;$PGRME,2.9,M,3.6,M,4.6,M*22
02:01:01.415;B;$GPGLL,4721.464,N,00832.478,E,121234,A*29
02:01:01.503;B;$PGRMZ,1350,f,3*2C
02:01:01.546;B;$PGRMM,WGS 84*06
02:01:01.607;I;$POSMGYR,-361,-2563,3613*50
02:01:01.607;I;$POSMACC,-292,9812,15352*4A
02:01:01.583;B;$GPBOD,,T,,M,,*47
02:01:01.645;B;$GPRTE,1,1,c,0*07
02:01:02.164;A;$SDDPT,14.88,0.00,100.0*61
02:01:02.232;A;$SDDBT,48.82,f,14.88,M,8.13,F*3F
02:01:02.445;B;$GPRMC,121235,A,4721.464,N,00832.477,E,000.0,253.6,110916,000.2,E*75
02:01:02.607;I;$POSMGYR,-2055,-1246,1747*67
02:01:02.607;I;$POSMACC,-1092,9352,12500*70
02:01:02.594;B;$GPRMB,A,,,,,,,,,,,,V*71
02:01:02.649;B;$GPGGA,121235,4721.464,N,00832.477,E,1,11,0.8,411.3,M,48.0,M,,*4C
02:01:02.788;B;$GPGSA,A,3,07,08,10,11,15,16,18,21,26,27,,32,1.3,0.8,1.0*3E
02:01:02.918;B;$GPGSV,3,1,12,07,05,288,32,08,53,302,43,10,64,103,49,11,18,274,42*73
02:01:03.063;B;$GPGSV,3,2,12,15,05,029,42,16,34,194,48,18,39,058,48,21,13,073,46*72
02:01:03.167;A;$SDDPT,14.88,0.00,100.0*61
02:01:03.237;A;$SDDBT,48.82,f,14.88,M,8.13,F*3F
02:01:03.208;B;$GPGSV,3,3,12,26,11,178,42,27,85,114,48,30,06,313,32,32,08,133,45*7A
02:01:03.355;B;$PGRME,2.9,M,3.6,M,4.6,M*22
02:01:03.416;B;$GPGLL,4721.464,N,00832.477,E,121236,A*24
02:01:03.507;B;$PGRMZ,1349,f,3*24
02:01:03.548;B;$PGRMM,WGS 84*06
02:01:03.609;I;$POSMGYR,1693,-2141,-1489*6E
02:01:03.609;I;$POSMACC,-924,9460,15920*4A
02:01:03.588;B;$GPBOD,,T,,M,,*47
02:01:03.647;B;$GPRTE,1,1,c,0*07
02:01:04.171;A;$SDDPT,14.83,0.00,100.0*6A
02:01:04.238;A;$SDDBT,48.66,f,14.83,M,8.11,F*3C
02:01:04.449;B;$GPRMC,121237,A,4721.464,N,00832.477,E,000.0,253.6,110916,000.2,E*77
02:01:04.611;I;$POSMGYR,915,720,3573*6B
02:01:04.611;I;$POSMACC,-160,9528,14300*46
02:01:04.595;B;$GPRMB,A,,,,,,,,,,,,V*71
02:01:04.650;B;$GPGGA,121237,4721.464,N,00832.477,E,1,11,0.7,411.2,M,48.0,M,,*40
02:01:04.791;B;$GPGSA,A,3,07,08,10,11,15,16,18,21,26,27,,32,1.2,0.7,0.9*38
02:01:04.917;B;$GPGSV,3,1,12,07,05,288,32,08,53,302,44,10,64,103,48,11,18,274,42*75
02:01:05.065;B;$GPGSV,3,2,12,15,05,029,41,16,34,194,49,18,39,058,49,21,13,073,46*71
02:01:05.167;A;$SDDPT,14.88,0.00,100.0*61
02:01:05.233;A;$SDDBT,48.82,f,14.88,M,8.13,F*3F
02:01:05.212;B;$GPGSV,3,3,12,26,11,178,42,27,85,114,48,30,06,313,32,32,08,133,45*7A
02:01:05.356;B;$PGRME,2.9,M,3.6,M,4.6,M*22
02:01:05.419;B;$GPGLL,4721.464,N,00832.477,E,121238,A*2A
02:01:05.508;B;$PGRMZ,1349,f,3*24
02:01:05.550;B;$PGRMM,WGS 84*06
02:01:05.613;I;$POSMGYR,-1620,1791,-3721*6D
02:01:05.613;I;$POSMACC,1616,9792,13740*58
02:01:05.587;B;$GPBOD,,T,,M,,*47
02:01:05.650;B;$GPRTE,1,1,c,0*07
02:01:06.169;A;$SDDPT,14.76,0.00,100.0*60
02:01:06.237;A;$SDDBT,48.43,f,14.76,M,8.07,F*36
02:01:06.450;B;$GPRMC,121239,A,4721.464,N,00832.476,E,000.0,253.6,110916,000.2,E*78
02:01:06.614;I;$POSMGYR,-2867,1210,-2571*69
02:01:06.614;I;$POSMACC,-860,9952,13164*49
02:01:06.598;B;$GPRMB,A,,,,,,,,,,,,V*71
02:01:06.653;B;$GPGGA,121239,4721.464,N,00832.476,E,1,11,0.7,411.2,M,48.0,M,,*4F
02:01:06.792;B;$GPGSA,A,3,07,08,10,11,15,16,18,21,26,27,,32,1.2,0.7,0.9*38
02:01:06.921;B;$GPGSV,3,1,12,07,05,288,32,08,53,302,44,10,64,103,49,11,18,274,42*74
02:01:07.067;B;$GPGSV,3,2,12,15,05,029,41,16,34,194,48,18,39,058,48,21,13,073,45*72
02:01:07.166;A;$SDDPT,14.80,0.00,100.0*69
02:01:07.232;A;$SDDBT,48.56,f,14.80,M,8.09,F*35
02:01:07.213;B;$GPGSV,3,3,12,26,11,178,42,27,85,114,48,30,06,313,32,32,08,133,45*7A
02:01:07.361;B;$PGRME,2.9,M,3.6,M,4.6,M*22
02:01:07.420;B;$GPGLL,4721.464,N,00832.476,E,121240,A*24
02:01:07.511;B;$PGRMZ,1349,f,3*24
02:01:07.552;B;$PGRMM,WGS 84*06
02:01:07.616;I;$POSMGYR,-315,-39,1955*54
02:01:07.616;I;$POSMACC,-1760,8640,14408*72
02:01:07.591;B;$GPBOD,,T,,M,,*47
02:01:07.652;B;$GPRTE,1,1,c,0*07
02:01:08.168;A;$SDDPT,14.71,0.00,100.0*67
02:01:08.236;A;$SDDBT,48.26,f,14.71,M,8.04,F*31
02:01:08.451;B;$GPRMC,121241,A,4721.464,N,00832.476,E,000.0,253.6,110916,000.2,E*77
02:01:08.619;I;$POSMGYR,749,-2119,-4154*54
02:01:08.619;I;$POSMACC,668,13356,11440*56
02:01:08.600;B;$GPRMB,A,,,,,,,,,,,,V*71
02:01:08.654;B;$GPGGA,121241,4721.464,N,00832.475,E,1,11,0.7,411.3,M,48.0,M,,*42
02:01:08.794;B;$GPGSA,A,3,07,08,10,11,15,16,18,21,26,27,,32,1.2,0.7,0.9*38
02:01:08.922;B;$GPGSV,3,1,12,07,05,288,33,08,53,302,44,10,64,103,49,11,18,274,42*75
02:01:09.068;B;$GPGSV,3,2,12,15,05,029,41,16,34,194,49,18,38,057,48,21,13,073,46*7E
02:01:09.171;A;$SDDPT,14.65,0.00,100.0*62
02:01:09.237;A;$SDDBT,48.07,f,14.65,M,8.01,F*32
02:01:09.216;B;$GPGSV,3,3,12,26,11,178,42,27,85,114,48,30,06,313,31,32,08,133,45*79
02:01:09.360;B;$PGRME,2.9,M,3.6,M,4.6,M*22
02:01:09.421;B;$GPGLL,4721.464,N,00832.475,E,121242,A*25
02:01:09.512;B;$PGRMZ,1349,f,3*24
02:01:09.553;B;$PGRMM,WGS 84*06
02:01:09.620;I;$POSMGYR,-3688,-1547,1351*65
02:01:09.620;I;$POSMACC,-232,8264,13608*46
02:01:09.592;B;$GPBOD,,T,,M,,*47
02:01:09.653;B;$GPRTE,1,1,c,0*07
02:01:10.167;A;$SDDPT,14.68,0.00,100.0*6F
02:01:10.234;A;$SDDBT,48.16,f,14.68,M,8.02,F*3C
02:01:10.454;B;$GPRMC,121243,A,4721.464,N,00832.475,E,000.0,253.6,110916,000.2,E*76
02:01:10.622;I;$POSMGYR,2748,-1496,2553*4E
02:01:10.622;I;$POSMACC,-144,9128,14084*4B
02:01:10.602;B;$GPRMB,A,,,,,,,,,,,,V*71
02:01:10.656;B;$GPGGA,121243,4721.464,N,00832.475,E,1,11,0.7,411.4,M,48.0,M,,*47
02:01:10.795;B;$GPGSA,A,3,07,08,10,11,15,16,18,21,26,27,,32,1.2,0.7,0.9*38
02:01:10.924;B;$GPGSV,3,1,12,07,05,288,33,08,53,302,44,10,64,103,49,11,18,274,42*75
02:01:11.071;B;$GPGSV,3,2,12,15,05,029,41,16,34,194,48,18,38,057,48,21,13,073,45*7C
02:01:11.170;A;$SDDPT,14.59,0.00,100.0*6D
02:01:11.236;A;$SDDBT,47.87,f,14.59,M,7.97,F*3A
02:01:11.217;B;$GPGSV,3,3,12,26,11,178,42,27,85,114,48,30,06,313,32,32,08,133,45*7A
02:01:11.362;B;$PGRME,2.9,M,3.6,M,4.6,M*22
02:01:11.422;B;$GPGLL,4721.464,N,00832.475,E,121244,A*23
02:01:11.514;B;$PGRMZ,1349,f,3*24
02:01:11.555;B;$PGRMM,WGS 84*06
02:01:11.623;I;$POSMGYR,-697,4691,-3858*55
02:01:11.623;I;$POSMACC,1340,10264,14540*6F
02:01:11.592;B;$GPBOD,,T,,M,,*47
02:01:11.656;B;$GPRTE,1,1,c,0*07
02:01:12.164;A;$SDDPT,14.58,0.00,100.0*6C
02:01:12.231;A;$SDDBT,47.84,f,14.58,M,7.97,F*38
02:01:12.456;B;$GPRMC,121245,A,4721.464,N,00832.474,E,000.0,253.6,110916,000.2,E*71
02:01:12.624;I;$POSMGYR,-4377,4728,-3679*64
02:01:12.624;I;$POSMACC,628,9548,13160*65
02:01:12.604;B;$GPRMB,A,,,,,,,,,,,,V*71
02:01:12.656;B;$GPGGA,121245,4721.464,N,00832.474,E,1,11,0.7,411.3,M,48.0,M,,*47
02:01:12.799;B;$GPGSA,A,3,07,08,10,11,15,16,18,21,26,27,,32,1.2,0.7,0.9*38
02:01:12.926;B;$GPGSV,3,1,12,07,05,288,33,08,53,302,43,10,64,103,49,11,18,274,42*72
02:01:13.072;B;$GPGSV,3,2,12,15,05,029,41,16,34,194,49,18,38,057,48,21,13,073,45*7D
02:01:13.166;A;$SDDPT,14.65,0.00,100.0*62
02:01:13.235;A;$SDDBT,48.07,f,14.65,M,8.01,F*32
02:01:13.219;B;$GPGSV,3,3,12,26,11,178,43,27,85,114,48,30,06,313,31,32,08,133,46*7B
02:01:13.365;B;$PGRME,2.9,M,3.6,M,4.6,M*22
02:01:13.425;B;$GPGLL,4721.464,N,00832.474,E,121246,A*20
02:01:13.517;B;$PGRMZ,1350,f,3*2C
02:01:13.558;B;$PGRMM,WGS 84*06
02:01:13.626;I;$POSMGYR,-2771,-1094,596*54
02:01:13.626;I;$POSMACC,-1896,9344,12444*7A
02:01:13.595;B;$GPBOD,,T,,M,,*47
02:01:13.657;B;$GPRTE,1,1,c,0*07
02:01:14.170;A;$SDDPT,14.44,0.00,100.0*61
02:01:14.236;A;$SDDBT,47.38,f,14.44,M,7.89,F*3D
02:01:14.457;B;$GPRMC,121247,A,4721.464,N,00832.474,E,000.0,253.6,110916,000.2,E*73
02:01:14.627;I;$POSMGYR,2559,-1808,-750*59
02:01:14.627;I;$POSMACC,-1096,11312,13156*4F
02:01:14.605;B;$GPRMB,A,,,,,,,,,,,,V*71
02:01:14.661;B;$GPGGA,121247,4721.464,N,00832.474,E,1,11,0.7,411.4,M,48.0,M,,*42
02:01:14.799;B;$GPGSA,A,3,07,08,10,11,15,16,18,21,26,27,,32,1.2,0.7,0.9*38
02:01:14.928;B;$GPGSV,3,1,12,07,05,288,34,08,53,302,42,10,64,103,49,11,18,274,41*77
02:01:15.074;B;$GPGSV,3,2,12,15,05,029,40,16,34,194,49,18,38,057,48,21,13,073,45*7C
02:01:15.165;A;$SDDPT,14.49,0.00,100.0*6C
02:01:15.232;A;$SDDBT,47.54,f,14.49,M,7.92,F*30
02:01:15.219;B;$GPGSV,3,3,12,26,11,178,43,27,85,114,48,30,06,313,31,32,08,133,46*7B
02:01:15.368;B;$PGRME,2.9,M,3.6,M,4.6,M*22
02:01:15.426;B;$GPGLL,4721.464,N,00832.473,E,121248,A*29
02:01:15.517;B;$PGRMZ,1350,f,3*2C
02:01:15.558;B;$PGRMM,WGS 84*06
02:01:15.628;I;$POSMGYR,-767,443,-971*5B
02:01:15.628;I;$POSMACC,624,8564,13628*6D
02:01:15.597;B;$GPBOD,,T,,M,,*47
02:01:15.661;B;$GPRTE,1,1,c,0*07
02:01:16.169;A;$SDDPT,14.46,0.00,100.0*63
02:01:16.236;A;$SDDBT,47.44,f,14.46,M,7.90,F*3C
02:01:16.461;B;$GPRMC,121249,A,4721.464,N,00832.473,E,000.0,253.6,110916,000.2,E*7A
02:01:16.630;I;$POSMGYR,-1505,1918,1602*49
02:01:16.630;I;$POSMACC,-1856,10552,13888*42
02:01:16.610;B;$GPRMB,A,,,,,,,,,,,,V*71
02:01:16.661;B;$GPGGA,121249,4721.464,N,00832.473,E,1,11,0.7,411.5,M,48.0,M,,*4A
02:01:16.803;B;$GPGSA,A,3,07,08,10,11,15,16,18,21,26,27,,32,1.2,0.7,0.9*38
02:01:16.929;B;$GPGSV,3,1,12,07,05,288,34,08,53,302,42,10,64,103,49,11,18,274,41*77
02:01:17.075;B;$GPGSV,3,2,12,15,05,029,40,16,34,194,49,18,38,057,48,21,13,073,46*7F
02:01:17.165;A;$SDDPT,14.34,0.00,100.0*66
02:01:17.233;A;$SDDBT,47.05,f,14.34,M,7.84,F*39
02:01:17.221;B;$GPGSV,3,3,12,26,11,178,43,27,85,114,48,30,06,313,31,32,08,133,46*7B
02:01:17.370;B;$PGRME,2.9,M,3.7,M,4.7,M*22
02:01:17.430;B;$GPGLL,4721.464,N,00832.473,E,121250,A*20
02:01:17.519;B;$PGRMZ,1350,f,3*2C
02:01:17.562;B;$PGRMM,WGS 84*06
02:01:17.631;I;$POSMGYR,-1818,2297,-3*5C
02:01:17.631;I;$POSMACC,0,8468,14176*6B
02:01:17.598;B;$GPBOD,,T,,M,,*47
02:01:17.662;B;$GPRTE,1,1,c,0*07
02:01:18.166;A;$SDDPT,14.44,0.00,100.0*61
02:01:18.235;A;$SDDBT,47.38,f,14.44,M,7.89,F*3D
02:01:18.460;B;$GPRMC,121251,A,4721.464,N,00832.472,E,000.0,253.6,110916,000.2,E*72
02:01:18.633;I;$POSMGYR,139,1300,-431*43
02:01:18.633;I;$POSMACC,220,10552,14744*5D
02:01:18.609;B;$GPRMB,A,,,,,,,,,,,,V*71
02:01:18.664;B;$GPGGA,121251,4721.464,N,00832.472,E,1,11,0.7,411.5,M,48.0,M,,*42
02:01:18.803;B;$GPGSA,A,3,07,08,10,11,15,16,18,21,26,27,,32,1.2,0.7,0.9*38
02:01:18.932;B;$GPGSV,3,1,12,07,05,288,33,08,53,302,43,10,64,103,48,11,18,274,41*70
02:01:19.078;B;$GPGSV,3,2,12,15,05,029,41,16,34,194,49,18,38,057,48,21,13,073,46*7E
02:01:19.170;A;$SDDPT,14.23,0.00,100.0*60
02:01:19.236;A;$SDDBT,46.69,f,14.23,M,7.78,F*37
02:01:19.225;B;$GPGSV,3,3,12,26,11,178,42,27,85,114,48,30,06,313,32,32,08,133,45*7A
02:01:19.371;B;$PGRME,2.9,M,3.7,M,4.7,M*22
02:01:19.431;B;$GPGLL,4721.464,N,00832.472,E,121252,A*23
02:01:19.520;B;$PGRMZ,1350,f,3*2C
02:01:19.563;B;$PGRMM,WGS 84*06
02:01:19.635;I;$POSMGYR,-3598,-4288,2101*62
02:01:19.635;I;$POSMACC,-332,9364,13272*4E
02:01:19.599;B;$GPBOD,,T,,M,,*47
02:01:19.663;B;$GPRTE,1,1,c,0*07
02:01:20.166;A;$SDDPT,14.25,0.00,100.0*66
02:01:20.233;A;$SDDBT,46.75,f,14.25,M,7.79,F*3D
02:01:20.464;B;$GPRMC,121253,A,4721.464,N,00832.472,E,000.0,253.6,110916,000.2,E*70
02:01:20.636;I;$POSMGYR,-918,2701,2000*7A
02:01:20.636;I;$POSMACC,1384,9824,12884*52
02:01:20.610;B;$GPRMB,A,,,,,,,,,,,,V*71
02:01:20.665;B;$GPGGA,121253,4721.464,N,00832.472,E,1,11,0.7,411.3,M,48.0,M,,*46
02:01:20.805;B;$GPGSA,A,3,07,08,10,11,15,16,18,21,26,27,,32,1.2,0.7,0.9*38
02:01:20.934;B;$GPGSV,3,1,12,07,05,288,33,08,53,302,44,10,64,103,48,11,18,274,42*74
02:01:21.079;B;$GPGSV,3,2,12,15,05,029,41,16,34,194,48,18,38,057,48,21,13,073,46*7F
02:01:21.169;A;$SDDPT,14.31,0.00,100.0*63
02:01:21.235;A;$SDDBT,46.95,f,14.31,M,7.82,F*32
02:01:21.225;B;$GPGSV,3,3,12,26,11,178,41,27,85,114,48,30,06,313,34,32,08,133,45*7F
02:01:21.372;B;$PGRME,2.9,M,3.7,M,4.7,M*22
02:01:21.432;B;$GPGLL,4721.464,N,00832.471,E,121254,A*26
02:01:21.523;B;$PGRMZ,1350,f,3*2C
02:01:21.564;B;$PGRMM,WGS 84*06
02:01:21.637;I;$POSMGYR,-4209,-632,-1946*7E
02:01:21.637;I;$POSMACC,184,11176,13936*5F
02:01:21.604;B;$GPBOD,,T,,M,,*47
02:01:21.666;B;$GPRTE,1,1,c,0*07
02:01:22.163;A;$SDDPT,14.14,0.00,100.0*64
02:01:22.230;A;$SDDBT,46.39,f,14.14,M,7.73,F*3D
02:01:22.465;B;$GPRMC,121255,A,4721.464,N,00832.471,E,000.0,253.6,110916,000.2,E*75
02:01:22.640;I;$POSMGYR,-2201,-423,318*6F
02:01:22.640;I;$POSMACC,-1492,8008,15024*7D
02:01:22.614;B;$GPRMB,A,,,,,,,,,,,,V*71
02:01:22.667;B;$GPGGA,121255,4721.464,N,00832.471,E,1,11,0.7,411.2,M,48.0,M,,*42
02:01:22.807;B;$GPGSA,A,3,07,08,10,11,15,16,18,21,26,27,,32,1.2,0.7,0.9*38
02:01:22.934;B;$GPGSV,3,1,12,07,05,288,31,08,53,302,44,10,64,103,49,11,18,274,41*74
02:01:23.082;B;$GPGSV,3,2,12,15,05,029,42,16,34,194,48,18,38,057,48,21,13,073,46*7C
02:01:23.166;A;$SDDPT,14.23,0.00,100.0*60
02:01:23.234;A;$SDDBT,46.69,f,14.23,M,7.78,F*37
02:01:23.228;B;$GPGSV,3,3,12,26,11,178,41,27,85,114,48,30,06,313,34,32,08,133,45*7F
02:01:23.374;B;$PGRME,2.9,M,3.7,M,4.7,M*22
02:01:23.435;B;$GPGLL,4721.464,N,00832.471,E,121256,A*24
02:01:23.524;B;$PGRMZ,1350,f,3*2C
02:01:23.567;B;$PGRMM,WGS 84*06
02:01:23.603;B;$GPBOD,,T,,M,,*47
02:01:23.642;I;$POSMGYR,1626,-4005,2484*44
02:01:23.642;I;$POSMACC,-212,9580,13144*47
02:01:23.667;B;$GPRTE,1,1,c,0*07
02:01:24.169;A;$SDDPT,14.05,0.00,100.0*64
02:01:24.236;A;$SDDBT,46.10,f,14.05,M,7.68,F*3C
02:01:24.467;B;$GPRMC,121257,A,4721.464,N,00832.470,E,000.0,253.6,110916,000.2,E*76
02:01:24.643;I;$POSMGYR,-1184,3421,-2196*65
02:01:24.643;I;$POSMACC,-556,7164,14600*40
02:01:24.615;B;$GPRMB,A,,,,,,,,,,,,V*71
02:01:24.670;B;$GPGGA,121257,4721.464,N,00832.470,E,1,11,0.7,411.3,M,48.0,M,,*40
02:01:24.809;B;$GPGSA,A,3,07,08,10,11,15,16,18,21,26,27,,32,1.2,0.7,0.9*38
02:01:24.937;B;$GPGSV,3,1,12,07,05,288,32,08,53,302,43,10,64,103,49,11,18,274,42*73
02:01:25.084;B;$GPGSV,3,2,12,15,05,029,42,16,34,194,49,18,38,057,48,21,13,073,45*7E
02:01:25.165;A;$SDDPT,14.11,0.00,100.0*61
02:01:25.233;A;$SDDBT,46.29,f,14.11,M,7.71,F*3B
02:01:25.231;B;$GPGSV,3,3,12,26,11,178,42,27,85,114,47,30,06,313,34,32,08,133,45*73
02:01:25.379;B;$PGRME,2.9,M,3.6,M,4.6,M*22
02:01:25.436;B;$GPGLL,4721.464,N,00832.470,E,121258,A*2B
02:01:25.525;B;$PGRMZ,1349,f,3*24
02:01:25.568;B;$PGRMM,WGS 84*06
02:01:25.607;B;$GPBOD,,T,,M,,*47
02:01:25.646;I;$POSMGYR,1406,-499,-491*6A
02:01:25.646;I;$POSMACC,-2332,11384,10900*46
02:01:25.668;B;$GPRTE,1,1,c,0*07
02:01:26.168;A;$SDDPT,14.14,0.00,100.0*64
02:01:26.235;A;$SDDBT,46.39,f,14.14,M,7.73,F*3D
02:01:26.468;B;$GPRMC,121259,A,4721.464,N,00832.470,E,000.0,253.6,110916,000.2,E*78
02:01:26.648;I;$POSMGYR,-348,3560,-1797*56
02:01:26.648;I;$POSMACC,480,10792,15508*54
02:01:26.618;B;$GPRMB,A,,,,,,,,,,,,V*71
02:01:26.671;B;$GPGGA,121259,4721.464,N,00832.470,E,1,11,0.7,411.3,M,48.0,M,,*4E
02:01:26.810;B;$GPGSA,A,3,07,08,10,11,15,16,18,21,26,27,,32,1.2,0.7,0.9*38
02:01:26.939;B;$GPGSV,3,1,12,07,05,288,33,08,53,302,43,10,64,103,49,11,18,274,42*72
02:01:27.163;A;$SDDPT,14.02,0.00,100.0*63
02:01:27.085;B;$GPGSV,3,2,12,15,05,029,42,16,34,194,49,18,38,057,48,21,13,073,46*7D
02:01:27.234;A;$SDDBT,46.00,f,14.02,M,7.66,F*34
02:01:27.234;B;$GPGSV,3,3,12,26,11,178,43,27,85,114,48,30,06,313,32,32,08,133,45*7B
02:01:27.377;B;$PGRME,2.9,M,3.6,M,4.6,M*22
02:01:27.438;B;$GPGLL,4721.464,N,00832.470,E,121300,A*27
02:01:27.529;B;$PGRMZ,1349,f,3*24
02:01:27.570;B;$PGRMM,WGS 84*06
02:01:27.608;B;$GPBOD,,T,,M,,*47
02:01:27.649;I;$POSMGYR,1901,1672,-446*71
02:01:27.649;I;$POSMACC,28,10148,13880*68
02:01:27.669;B;$GPRTE,1,1,c,0*07
02:01:28.167;A;$SDDPT,14.08,0.00,100.0*69
02:01:28.236;A;$SDDBT,46.20,f,14.08,M,7.70,F*3B
02:01:28.471;B;$GPRMC,121301,A,4721.464,N,00832.469,E,000.0,253.6,110916,000.2,E*7C
02:01:28.652;I;$POSMGYR,-131,810,-462*5B
02:01:28.652;I;$POSMACC,-152,9732,14412*4A
02:01:28.619;B;$GPRMB,A,,,,,,,,,,,,V*71
02:01:28.672;B;$GPGGA,121301,4721.464,N,00832.469,E,1,11,0.7,411.3,M,48.0,M,,*4A
02:01:28.813;B;$GPGSA,A,3,07,08,10,11,15,16,18,21,26,27,,32,1.2,0.7,0.9*38
02:01:28.940;B;$GPGSV,3,1,12,07,05,288,33,08,53,302,43,10,64,103,49,11,18,274,42*72
02:01:29.088;B;$GPGSV,3,2,12,15,05,029,42,16,34,194,49,18,38,057,49,21,13,073,46*7C
02:01:29.168;A;$SDDPT,13.87,0.00,100.0*69
02:01:29.237;A;$SDDBT,45.51,f,13.87,M,7.58,F*34
02:01:29.235;B;$GPGSV,3,3,12,26,11,178,44,27,85,114,48,30,06,313,31,32,08,133,45*7F
02:01:29.380;B;$PGRME,2.9,M,3.6,M,4.6,M*22
02:01:29.441;B;$GPGLL,4721.464,N,00832.469,E,121302,A*2D
02:01:29.530;B;$PGRMZ,1349,f,3*24
02:01:29.573;B;$PGRMM,WGS 84*06
02:01:29.610;B;$GPBOD,,T,,M,,*47
02:01:29.652;I;$POSMGYR,159,-1686,1760*78
02:01:29.652;I;$POSMACC,144,10100,13296*52
02:01:29.672;B;$GPRTE,1,1,c,0*07
02:01:30.165;A;$SDDPT,14.05,0.00,100.0*64
02:01:30.232;A;$SDDBT,46.10,f,14.05,M,7.68,F*3C
02:01:30.472;B;$GPRMC,121303,A,4721.464,N,00832.469,E,000.0,253.6,110916,000.2,E*7E
02:01:30.655;I;$POSMGYR,-4965,3001,-2276*6C
02:01:30.655;I;$POSMACC,1644,10112,13384*65
02:01:30.619;B;$GPRMB,A,,,,,,,,,,,,V*71
02:01:30.676;B;$GPGGA,121303,4721.463,N,00832.469,E,1,11,0.7,411.4,M,48.0,M,,*48
02:01:30.815;B;$GPGSA,A,3,07,08,10,11,15,16,18,21,26,27,,32,1.2,0.7,0.9*38
02:01:30.945;B;$GPGSV,3,1,12,07,05,288,32,08,53,302,44,10,64,103,49,11,18,274,43*75
02:01:31.167;A;$SDDPT,13.93,0.00,100.0*6C
02:01:31.088;B;$GPGSV,3,2,12,15,05,029,43,16,34,194,48,18,38,057,49,21,13,073,46*7C
02:01:31.236;A;$SDDBT,45.70,f,13.93,M,7.61,F*38
02:01:31.236;B;$GPGSV,3,3,12,26,11,178,43,27,85,114,48,30,06,313,33,32,08,133,43*7C
02:01:31.381;B;$PGRME,2.9,M,3.7,M,4.7,M*22
02:01:31.443;B;$GPGLL,4721.464,N,00832.469,E,121304,A*2B
02:01:31.533;B;$PGRMZ,1349,f,3*24
02:01:31.574;B;$PGRMM,WGS 84*06
02:01:31.612;B;$GPBOD,,T,,M,,*47
02:01:31.657;I;$POSMGYR,-2594,-27,-1801*4B
02:01:31.657;I;$POSMACC,-708,8956,13992*4C
02:01:31.673;B;$GPRTE,1,1,c,0*07
02:01:32.165;A;$SDDPT,13.95,0.00,100.0*6A
02:01:32.231;A;$SDDBT,45.77,f,13.95,M,7.62,F*3A
02:01:32.475;B;$GPRMC,121305,A,4721.463,N,00832.468,E,000.0,253.6,110916,000.2,E*7E
02:01:32.659;I;$POSMGYR,-578,2104,2589*77
02:01:32.659;I;$POSMACC,84,9760,13476*5F
02:01:32.621;B;$GPRMB,A,,,,,,,,,,,,V*71
02:01:32.678;B;$GPGGA,121305,4721.463,N,00832.468,E,1,11,0.7,411.2,M,48.0,M,,*49
02:01:32.818;B;$GPGSA,A,3,07,08,10,11,15,16,18,21,26,27,,32,1.2,0.7,0.9*38
02:01:32.944;B;$GPGSV,3,1,12,07,05,288,31,08,53,302,44,10,64,103,49,11,18,274,43*76
02:01:33.167;A;$SDDPT,13.92,0.00,100.0*6D
02:01:33.090;B;$GPGSV,3,2,12,15,05,029,43,16,34,194,48,18,38,057,49,21,13,073,46*7C
02:01:33.232;A;$SDDBT,45.67,f,13.92,M,7.61,F*3F
02:01:33.238;B;$GPGSV,3,3,12,26,11,178,43,27,85,114,48,30,06,313,32,32,08,133,43*7D
02:01:33.384;B;$PGRME,2.9,M,3.6,M,4.6,M*22
02:01:33.445;B;$GPGLL,4721.463,N,00832.468,E,121306,A*2F
02:01:33.534;B;$PGRMZ,1350,f,3*2C
02:01:33.577;B;$PGRMM,WGS 84*06
02:01:33.614;B;$GPBOD,,T,,M,,*47
02:01:33.659;I;$POSMGYR,830,-2753,1419*79
02:01:33.659;I;$POSMACC,72,9056,14528*59
02:01:33.675;B;$GPRTE,1,1,c,0*07
02:01:34.168;A;$SDDPT,13.75,0.00,100.0*64
02:01:34.235;A;$SDDBT,45.11,f,13.75,M,7.51,F*34
02:01:34.477;B;$GPRMC,121307,A,4721.463,N,00832.468,E,000.0,253.6,110916,000.2,E*7C
02:01:34.660;I;$POSMGYR,512,-2475,-113*60
02:01:34.660;I;$POSMACC,-128,8576,13244*46
02:01:34.622;B;$GPRMB,A,,,,,,,,,,,,V*71
02:01:34.680;B;$GPGGA,121307,4721.463,N,00832.468,E,1,11,0.7,411.3,M,48.0,M,,*4A
02:01:34.819;B;$GPGSA,A,3,07,08,10,11,15,16,18,21,26,27,,32,1.2,0.7,0.9*38
02:01:34.945;B;$GPGSV,3,1,12,07,05,288,32,08,53,302,44,10,64,103,49,11,18,274,44*72
02:01:35.164;A;$SDDPT,13.75,0.00,100.0*64
02:01:35.093;B;$GPGSV,3,2,12,15,05,029,44,16,34,194,48,18,38,057,49,21,13,073,46*7B
02:01:35.230;A;$SDDBT,45.11,f,13.75,M,7.51,F*34
02:01:35.239;B;$GPGSV,3,3,12,26,11,178,43,27,85,114,48,30,06,313,32,32,08,133,43*7D
02:01:35.385;B;$PGRME,2.9,M,3.7,M,4.7,M*22
02:01:35.446;B;$GPGLL,4721.463,N,00832.468,E,121308,A*21
02:01:35.535;B;$PGRMZ,1349,f,3*24
02:01:35.578;B;$PGRMM,WGS 84*06
02:01:35.614;B;$GPBOD,,T,,M,,*47
02:01:35.662;I;$POSMGYR,-1741,1867,-1263*6C
02:01:35.662;I;$POSMACC,780,9048,14048*6F
02:01:35.678;B;$GPRTE,1,1,c,0*07
02:01:36.166;A;$SDDPT,13.71,0.00,100.0*60
02:01:36.234;A;$SDDBT,44.98,f,13.71,M,7.49,F*39
02:01:36.479;B;$GPRMC,121309,A,4721.463,N,00832.467,E,000.0,253.6,110916,000.2,E*7D
02:01:36.665;I;$POSMGYR,2774,288,2339*5E
02:01:36.665;I;$POSMACC,-488,9976,14784*4A
02:01:36.627;B;$GPRMB,A,,,,,,,,,,,,V*71
02:01:36.680;B;$GPGGA,121309,4721.463,N,00832.467,E,1,11,0.7,411.4,M,48.0,M,,*4C
02:01:36.822;B;$GPGSA,A,3,07,08,10,11,15,16,18,21,26,27,,32,1.2,0.7,0.9*38
02:01:36.949;B;$GPGSV,3,1,12,07,05,288,31,08,53,302,44,10,64,103,49,11,18,274,43*76
02:01:37.163;A;$SDDPT,13.71,0.00,100.0*60
02:01:37.094;B;$GPGSV,3,2,12,15,05,029,43,16,34,194,48,18,38,057,49,21,13,073,46*7C
02:01:37.231;A;$SDDBT,44.98,f,13.71,M,7.49,F*39
02:01:37.242;B;$GPGSV,3,3,12,26,11,178,43,27,85,114,48,30,06,313,32,32,08,133,44*7A
02:01:37.387;B;$PGRME,2.9,M,3.6,M,4.6,M*22
02:01:37.449;B;$GPGLL,4721.463,N,00832.467,E,121310,A*27
02:01:37.539;B;$PGRMZ,1350,f,3*2C
02:01:37.580;B;$PGRMM,WGS 84*06
02:01:37.617;B;$GPBOD,,T,,M,,*47
02:01:37.668;I;$POSMGYR,-2284,-1267,-3345*43
02:01:37.668;I;$POSMACC,-436,8464,12252*48
02:01:37.679;B;$GPRTE,1,1,c,0*07
02:01:38.165;A;$SDDPT,13.63,0.00,100.0*63
02:01:38.232;A;$SDDBT,44.72,f,13.63,M,7.45,F*32
02:01:38.481;B;$GPRMC,121311,A,4721.463,N,00832.467,E,000.0,253.6,110916,000.2,E*74
02:01:38.668;I;$POSMGYR,-696,2542,-1321*58
02:01:38.668;I;$POSMACC,-648,12008,15324*71
02:01:38.628;B;$GPRMB,A,,,,,,,,,,,,V*71
02:01:38.681;B;$GPGGA,121311,4721.463,N,00832.467,E,1,11,0.7,411.4,M,48.0,M,,*45
02:01:38.824;B;$GPGSA,A,3,07,08,10,11,15,16,18,21,26,27,,32,1.2,0.7,0.9*38
02:01:38.950;B;$GPGSV,3,1,12,07,05,288,31,08,53,302,45,10,64,103,48,11,18,274,43*76
02:01:39.168;A;$SDDPT,13.71,0.00,100.0*60
02:01:39.097;B;$GPGSV,3,2,12,15,05,029,44,16,34,194,48,18,38,057,49,21,13,073,46*7B
02:01:39.234;A;$SDDBT,44.98,f,13.71,M,7.49,F*39
02:01:39.243;B;$GPGSV,3,3,12,26,11,178,43,27,85,114,48,30,06,313,34,32,08,133,44*7C
02:01:39.390;B;$PGRME,2.9,M,3.7,M,4.7,M*22
02:01:39.450;B;$GPGLL,4721.463,N,00832.467,E,121312,A*25
02:01:39.539;B;$PGRMZ,1350,f,3*2C
02:01:39.582;B;$PGRMM,WGS 84*06
02:01:39.620;B;$GPBOD,,T,,M,,*47
02:01:39.670;I;$POSMGYR,-1868,277,2513*7C
02:01:39.670;I;$POSMACC,364,9492,13512*6F
02:01:39.682;B;$GPRTE,1,1,c,0*07
02:01:40.164;A;$SDDPT,13.54,0.00,100.0*67
02:01:40.231;A;$SDDBT,44.42,f,13.54,M,7.40,F*30
02:01:40.482;B;$GPRMC,121313,A,4721.463,N,00832.466,E,000.0,253.6,110916,000.2,E*77
02:01:40.672;I;$POSMGYR,-813,-2523,-9173*7C
02:01:40.672;I;$POSMACC,-792,11056,12664*79
02:01:40.630;B;$GPRMB,A,,,,,,,,,,,,V*71
02:01:40.685;B;$GPGGA,121313,4721.463,N,00832.466,E,1,11,0.7,411.4,M,48.0,M,,*46
02:01:40.826;B;$GPGSA,A,3,07,08,10,11,15,16,18,21,26,27,,32,1.2,0.7,0.9*38
02:01:40.953;B;$GPGSV,3,1,12,07,05,288,30,08,53,302,44,10,64,103,49,11,18,274,43*77
02:01:41.167;A;$SDDPT,13.63,0.00,100.0*63
02:01:41.098;B;$GPGSV,3,2,12,15,05,029,44,16,34,194,48,18,38,057,49,21,13,073,46*7B
02:01:41.234;A;$SDDBT,44.72,f,13.63,M,7.45,F*32
02:01:41.243;B;$GPGSV,3,3,12,26,10,178,43,27,85,114,48,30,06,313,34,32,08,133,44*7D
02:01:41.392;B;$PGRME,2.9,M,3.7,M,4.7,M*22
02:01:41.452;B;$GPGLL,4721.463,N,00832.466,E,121314,A*22
02:01:41.542;B;$PGRMZ,1349,f,3*24
02:01:41.583;B;$PGRMM,WGS 84*06
02:01:41.621;B;$GPBOD,,T,,M,,*47
02:01:41.673;I;$POSMGYR,1032,-2208,-1790*66
02:01:41.673;I;$POSMACC,452,9008,12628*61
02:01:41.684;B;$GPRTE,1,1,c,0*07
02:01:42.163;A;$SDDPT,13.54,0.00,100.0*67
02:01:42.231;A;$SDDBT,44.42,f,13.54,M,7.40,F*30
02:01:42.482;B;$GPRMC,121315,A,4721.463,N,00832.466,E,000.0,253.6,110916,000.2,E*71
02:01:42.675;I;$POSMGYR,619,5193,5185*58
02:01:42.675;I;$POSMACC,-656,9976,14868*46
02:01:42.631;B;$GPRMB,A,,,,,,,,,,,,V*71
02:01:42.690;B;$GPGGA,121315,4721.463,N,00832.466,E,1,11,0.7,411.2,M,48.0,M,,*46
02:01:42.825;B;$GPGSA,A,3,07,08,10,11,15,16,18,21,26,27,,32,1.2,0.7,0.9*38
02:01:42.953;B;$GPGSV,3,1,12,07,05,288,31,08,53,302,44,10,64,103,49,11,18,274,42*77
02:01:43.165;A;$SDDPT,13.65,0.00,100.0*65
02:01:43.100;B;$GPGSV,3,2,12,15,05,029,43,16,34,194,48,18,38,057,49,21,13,073,45*7F
02:01:43.233;A;$SDDBT,44.78,f,13.65,M,7.46,F*3D
02:01:43.245;B;$GPGSV,3,3,12,26,10,178,42,27,85,114,48,30,06,313,34,32,08,133,45*7D
02:01:43.394;B;$PGRME,2.9,M,3.7,M,4.7,M*22
02:01:43.452;B;$GPGLL,4721.463,N,00832.466,E,121316,A*20
02:01:43.543;B;$PGRMZ,1349,f,3*24
02:01:43.584;B;$PGRMM,WGS 84*06
02:01:43.623;B;$GPBOD,,T,,M,,*47
02:01:43.676;I;$POSMGYR,-2669,-784,4951*58
02:01:43.676;I;$POSMACC,420,10444,12584*55
02:01:43.687;B;$GPRTE,1,1,c,0*07
02:01:44.169;A;$SDDPT,13.54,0.00,100.0*67
02:01:44.236;A;$SDDBT,44.42,f,13.54,M,7.40,F*30
02:01:44.486;B;$GPRMC,121317,A,4721.463,N,00832.465,E,000.0,253.6,110916,000.2,E*70
02:01:44.678;I;$POSMGYR,-1670,-6837,1961*64
02:01:44.678;I;$POSMACC,364,9764,14092*6F
02:01:44.634;B;$GPRMB,A,,,,,,,,,,,,V*71
02:01:44.691;B;$GPGGA,121317,4721.463,N,00832.465,E,1,11,0.7,411.3,M,48.0,M,,*46
02:01:44.828;B;$GPGSA,A,3,07,08,10,11,15,16,18,21,26,27,,32,1.2,0.7,0.9*38
02:01:44.954;B;$GPGSV,3,1,12,07,05,288,31,08,53,302,45,10,64,103,48,11,18,274,41*74
02:01:45.164;A;$SDDPT,13.53,0.00,100.0*60
02:01:45.101;B;$GPGSV,3,2,12,15,05,029,43,16,34,194,48,18,38,057,49,21,13,073,45*7F
02:01:45.232;A;$SDDBT,44.39,f,13.53,M,7.39,F*35
02:01:45.250;B;$GPGSV,3,3,12,26,10,178,41,27,84,119,48,30,06,313,36,32,08,133,45*70
02:01:45.396;B;$PGRME,2.9,M,3.7,M,4.7,M*22
02:01:45.456;B;$GPGLL,4721.463,N,00832.465,E,121318,A*2D
02:01:45.545;B;$PGRMZ,1349,f,3*24
02:01:45.588;B;$PGRMM,WGS 84*06
02:01:45.624;B;$GPBOD,,T,,M,,*47
02:01:45.680;I;$POSMGYR,1924,-934,1644*7B
02:01:45.680;I;$POSMACC,-308,9884,12972*48
02:01:45.691;B;$GPRTE,1,1,c,0*07
02:01:46.166;A;$SDDPT,13.54,0.00,100.0*67
02:01:46.234;A;$SDDBT,44.42,f,13.54,M,7.40,F*30
02:01:46.489;B;$GPRMC,121319,A,4721.463,N,00832.465,E,000.0,253.6,110916,000.2,E*7E
02:01:46.681;I;$POSMGYR,-5199,2637,2010*4B
02:01:46.681;I;$POSMACC,2680,11048,15696*61
02:01:46.635;B;$GPRMB,A,,,,,,,,,,,,V*71
02:01:46.695;B;$GPGGA,121319,4721.463,N,00832.465,E,1,11,0.7,411.3,M,48.0,M,,*48
02:01:46.830;B;$GPGSA,A,3,07,08,10,11,15,16,18,21,26,27,,32,1.2,0.7,0.9*38
02:01:46.958;B;$GPGSV,3,1,12,07,05,288,31,08,53,302,44,10,64,103,48,11,18,274,41*75
02:01:47.169;A;$SDDPT,13.48,0.00,100.0*6A
02:01:47.106;B;$GPGSV,3,2,12,15,05,029,42,16,34,194,49,18,38,057,48,21,13,073,46*7D
02:01:47.237;A;$SDDBT,44.23,f,13.48,M,7.37,F*3A
02:01:47.251;B;$GPGSV,3,3,12,26,10,178,42,27,84,119,48,30,06,313,34,32,08,133,45*71
02:01:47.397;B;$PGRME,2.9,M,3.7,M,4.7,M*22
02:01:47.457;B;$GPGLL,4721.463,N,00832.465,E,121320,A*26
02:01:47.549;B;$PGRMZ,1349,f,3*24
02:01:47.589;B;$PGRMM,WGS 84*06
02:01:47.628;B;$GPBOD,,T,,M,,*47
02:01:47.684;I;$POSMGYR,-1126,1814,707*74
02:01:47.684;I;$POSMACC,-136,9984,12700*4D
02:01:47.696;B;$GPRTE,1,1,c,0*07
02:01:48.165;A;$SDDPT,13.48,0.00,100.0*6A
02:01:48.231;A;$SDDBT,44.23,f,13.48,M,7.37,F*3A
02:01:48.488;B;$GPRMC,121321,A,4721.463,N,00832.464,E,000.0,253.6,110916,000.2,E*74
02:01:48.685;I;$POSMGYR,-509,-1290,-10575*4C
02:01:48.685;I;$POSMACC,440,10032,14552*5B
02:01:48.637;B;$GPRMB,A,,,,,,,,,,,,V*71
02:01:48.699;B;$GPGGA,121321,4721.463,N,00832.464,E,1,11,0.8,411.4,M,48.0,M,,*4A
02:01:48.831;B;$GPGSA,A,3,07,08,10,11,15,16,18,21,26,27,,32,1.2,0.8,0.9*37
02:01:48.959;B;$GPGSV,3,1,12,07,05,288,31,08,53,302,44,10,64,103,48,11,18,274,42*76
02:01:49.167;A;$SDDPT,13.38,0.00,100.0*6D
