00:00:35.309;I;$POSMST,Start NMEA Logger,V 0.1.15*06
00:00:35.345;I;$POSMCFG,255,255,255,255,ffff,65535*73
00:00:35.348;A;$SDDPT,,0.00,100.0*4A
00:00:35.350;B;I‚‚b‚‚b’ºb¢‚b’ÂºbšÊb’ÊbŠ’b‚Êªb‚‚RºÂj
00:00:35.353;A;$SDDBT,,f,,M,,F*28
00:00:35.354;B;$PGRME,,M,,M,,M*00
00:00:35.356;I;$POSMGYR,-328,-131,-37*42
00:00:35.356;I;$POSMACC,112,10372,14156*5E
00:00:35.365;A;$SDDPT,,0.00,100.0*4A
00:00:35.369;A;$SDDBT,,f,,M,,F*28
00:00:35.563;A;$SDDPT,,0.00,100.0*4A
00:00:35.619;A;$SDDBT,,f,,M,,F*28
00:00:35.367;B;$GPGLL,,,,,101221,*51$GPRMC,101224,V,,,,,,,110916,,*3B
00:00:36.111;B;$GPRMB,V,,,,,,,,,,,,V*66
00:00:36.210;B;$GPGGA,101224,,,,,0,00,,,M,,M,,*62
00:00:36.354;I;$POSMGYR,-340,-107,-78*42
00:00:36.354;I;$POSMACC,168,10428,13928*5D
00:00:36.313;B;$GPGSA,A,1,,,,,,,,,,,,,,,*1E
00:00:36.411;B;$GPGSV,3,1,12,07,07,335,00,08,05,282,00,10,19,166,00,13,00,048,00*7E
00:00:36.559;A;$SDDPT,,0.00,100.0*4A
00:00:36.616;A;$SDDBT,,f,,M,,F*28
00:00:36.557;B;$GPGSV,3,2,12,15,01,077,00,16,65,280,00,18,40,131,00,20,33,061,44*7B
00:00:36.705;B;$GPGSV,3,3,12,21,62,067,41,26,63,200,00,27,40,287,39,29,12,095,00*78
00:00:36.851;B;$PGRME,,M,,M,,M*00
00:00:36.892;B;$GPGLL,,,,,101225,*55
00:00:36.941;B;$PGRMZ,,,*7E
00:00:37.011;B;$PGRMM,WGS 84*06
00:00:37.110;B;$GPBOD,,T,,M,,*47
00:00:37.212;B;$GPRTE,1,1,c,0*07
00:00:37.355;I;$POSMGYR,-289,-122,-40*4A
00:00:37.355;I;$POSMACC,48,10432,13788*61
00:00:37.562;A;$SDDPT,,0.00,100.0*4A
00:00:37.618;A;$SDDBT,,f,,M,,F*28
00:00:38.010;B;$GPRMC,101226,V,,,,,,,110916,,*39
00:00:38.112;B;$GPRMB,V,,,,,,,,,,,,V*66
00:00:38.211;B;$GPGGA,101226,,,,,0,00,,,M,,M,,*60
00:00:38.356;I;$POSMGYR,-329,-114,-48*4C
00:00:38.356;I;$POSMACC,228,10424,13860*5B
00:00:38.316;B;$GPGSA,A,1,,,,,,,,,,,,,,,*1E
00:00:38.412;B;$GPGSV,3,1,12,07,07,335,00,08,05,283,00,10,19,166,43,13,00,048,00*78
00:00:38.564;A;$SDDPT,,0.00,100.0*4A
00:00:38.621;A;$SDDBT,,f,,M,,F*28
00:00:38.560;B;$GPGSV,3,2,12,15,01,077,00,16,65,280,00,18,40,131,00,20,33,061,44*7B
00:00:38.705;B;$GPGSV,3,3,12,21,62,067,41,26,63,200,00,27,40,287,38,29,12,095,00*79
00:00:38.854;B;$PGRME,,M,,M,,M*00
00:00:38.893;B;$GPGLL,,,,,101227,*57
00:00:38.942;B;$PGRMZ,,,*7E
00:00:39.012;B;$PGRMM,WGS 84*06
00:00:39.113;B;$GPBOD,,T,,M,,*47
00:00:39.213;B;$GPRTE,1,1,c,0*07
00:00:39.358;I;$POSMGYR,-342,-133,-52*4F
00:00:39.358;I;$POSMACC,88,10388,13852*63
00:00:39.561;A;$SDDPT,,0.00,100.0*4A
00:00:39.616;A;$SDDBT,,f,,M,,F*28
00:00:40.013;B;$GPRMC,101228,V,,,,,,,110916,,*37
00:00:40.113;B;$GPRMB,V,,,,,,,,,,,,V*66
00:00:40.215;B;$GPGGA,101228,,,,,0,00,,,M,,M,,*6E
00:00:40.359;I;$POSMGYR,-335,-111,-69*47
00:00:40.359;I;$POSMACC,4,10528,13860*5A
00:00:40.318;B;$GPGSA,A,1,,,,,,,,,,,,,,,*1E
00:00:40.415;B;$GPGSV,3,1,12,07,07,335,00,08,05,283,00,10,19,166,43,13,00,048,00*78
00:00:40.563;A;$SDDPT,,0.00,100.0*4A
00:00:40.620;A;$SDDBT,,f,,M,,F*28
00:00:40.561;B;$GPGSV,3,2,12,15,01,077,00,16,65,280,00,18,40,131,00,20,33,061,44*7B
00:00:40.708;B;$GPGSV,3,3,12,21,62,067,40,26,63,200,00,27,40,287,38,29,12,095,00*78
00:00:40.854;B;$PGRME,,M,,M,,M*00
00:00:40.898;B;$GPGLL,,,,,101229,*59
00:00:40.945;B;$PGRMZ,,,*7E
00:00:41.014;B;$PGRMM,WGS 84*06
00:00:41.114;B;$GPBOD,,T,,M,,*47
00:00:41.216;B;$GPRTE,1,1,c,0*07
00:00:41.361;I;$POSMGYR,-327,-118,-54*43
00:00:41.361;I;$POSMACC,104,10408,13868*50
00:00:41.559;A;$SDDPT,,0.00,100.0*4A
00:00:41.615;A;$SDDBT,,f,,M,,F*28
00:00:42.014;B;$GPRMC,101230,V,,,,,,,110916,,*3E
00:00:42.116;B;$GPRMB,V,,,,,,,,,,,,V*66
00:00:42.216;B;$GPGGA,101230,,,,,0,00,,,M,,M,,*67
00:00:42.363;I;$POSMGYR,-320,-111,-71*4A
00:00:42.363;I;$POSMACC,116,10452,13960*55
00:00:42.319;B;$GPGSA,A,1,,,,,,,,,,,,,,,*1E
00:00:42.416;B;$GPGSV,3,1,12,07,07,335,00,08,05,283,00,10,19,166,43,13,00,048,00*78
00:00:42.564;A;$SDDPT,,0.00,100.0*4A
00:00:42.618;A;$SDDBT,,f,,M,,F*28
00:00:42.564;B;$GPGSV,3,2,12,15,01,077,00,16,65,280,00,18,40,131,00,20,33,061,44*7B
00:00:42.708;B;$GPGSV,3,3,12,21,62,067,40,26,63,200,00,27,40,287,38,29,12,095,00*78
00:00:42.857;B;$PGRME,,M,,M,,M*00
00:00:42.897;B;$GPGLL,,,,,101231,*50
00:00:42.945;B;$PGRMZ,,,*7E
00:00:43.018;B;$PGRMM,WGS 84*06
00:00:43.117;B;$GPBOD,,T,,M,,*47
00:00:43.216;B;$GPRTE,1,1,c,0*07
00:00:43.364;I;$POSMGYR,-328,-110,-61*42
00:00:43.364;I;$POSMACC,76,10456,13916*67
00:00:43.564;A;$SDDPT,,0.00,100.0*4A
00:00:43.620;A;$SDDBT,,f,,M,,F*28
00:00:44.017;B;$GPRMC,101232,V,,,,,,,110916,,*3C
00:00:44.116;B;$GPRMB,V,,,,,,,,,,,,V*66
00:00:44.217;B;$GPGGA,101232,,,,,0,00,,,M,,M,,*65
00:00:44.366;I;$POSMGYR,290,1427,-2011*75
00:00:44.366;I;$POSMACC,512,11396,14508*5E
00:00:44.320;B;$GPGSA,A,1,,,,,,,,,,,,,,,*1E
00:00:44.417;B;$GPGSV,3,1,12,07,07,335,00,08,05,283,00,10,19,166,43,13,00,048,00*78
00:00:44.561;A;$SDDPT,,0.00,100.0*4A
00:00:44.616;A;$SDDBT,,f,,M,,F*28
00:00:44.565;B;$GPGSV,3,2,12,15,01,077,00,16,65,280,00,18,40,131,00,20,33,061,43*7C
00:00:44.711;B;$GPGSV,3,3,12,21,62,067,39,26,63,200,00,27,40,287,38,29,12,095,00*76
00:00:44.858;B;$PGRME,,M,,M,,M*00
00:00:44.900;B;$GPGLL,,,,,101233,*52
00:00:44.948;B;$PGRMZ,,,*7E
00:00:45.019;B;$PGRMM,WGS 84*06
00:00:45.119;B;$GPBOD,,T,,M,,*47
00:00:45.217;B;$GPRTE,1,1,c,0*07
00:00:45.367;I;$POSMGYR,-321,-128,-39*4D
00:00:45.367;I;$POSMACC,-140,10456,13908*71
00:00:45.562;A;$SDDPT,,0.00,100.0*4A
00:00:45.619;A;$SDDBT,,f,,M,,F*28
00:00:46.020;B;$GPRMC,101234,V,,,,,,,110916,,*3A
00:00:46.119;B;$GPRMB,V,,,,,,,,,,,,V*66
00:00:46.220;B;$GPGGA,101234,,,,,0,00,,,M,,M,,*63
00:00:46.369;I;$POSMGYR,-338,-127,-42*46
00:00:46.369;I;$POSMACC,-72,10420,14028*4C
00:00:46.323;B;$GPGSA,A,1,,,,,,,,,,,,,,,*1E
00:00:46.420;B;$GPGSV,3,1,12,07,07,335,00,08,05,283,00,10,19,166,42,13,00,048,00*79
00:00:46.559;A;$SDDPT,,0.00,100.0*4A
00:00:46.615;A;$SDDBT,,f,,M,,F*28
00:00:46.570;B;$GPGSV,3,2,12,15,01,077,00,16,65,280,00,18,40,131,00,20,33,061,42*7D
00:00:46.714;B;$GPGSV,3,3,12,21,62,067,41,26,63,200,00,27,40,287,38,29,12,095,00*79
00:00:46.861;B;$PGRME,,M,,M,,M*00
00:00:46.903;B;$GPGLL,,,,,101235,*54
00:00:46.951;B;$PGRMZ,,,*7E
00:00:47.020;B;$PGRMM,WGS 84*06
00:00:47.119;B;$GPBOD,,T,,M,,*47
00:00:47.219;B;$GPRTE,1,1,c,0*07
00:00:47.371;I;$POSMGYR,-319,-100,-57*44
00:00:47.371;I;$POSMACC,124,10560,13908*5A
00:00:47.561;A;$SDDPT,,0.00,100.0*4A
00:00:47.618;A;$SDDBT,,f,,M,,F*28
00:00:48.021;B;$GPRMC,101236,V,,,,,,,110916,,*38
00:00:48.120;B;$GPRMB,V,,,,,,,,,,,,V*66
00:00:48.220;B;$GPGGA,101236,,,,,0,00,,,M,,M,,*61
00:00:48.372;I;$POSMGYR,-332,-95,-51*76
00:00:48.372;I;$POSMACC,-16,10488,13836*4C
00:00:48.324;B;$GPGSA,A,1,,,,,,,,,,,,,,,*1E
00:00:48.420;B;$GPGSV,3,1,12,07,07,335,00,08,05,283,00,10,19,166,42,13,00,048,00*79
00:00:48.564;A;$SDDPT,,0.00,100.0*4A
00:00:48.620;A;$SDDBT,,f,,M,,F*28
00:00:48.569;B;$GPGSV,3,2,12,15,01,077,00,16,65,280,00,18,40,131,00,20,33,061,41*7E
00:00:48.715;B;$GPGSV,3,3,12,21,62,067,41,26,63,200,00,27,40,287,38,29,12,095,00*79
00:00:48.861;B;$PGRME,,M,,M,,M*00
00:00:48.904;B;$GPGLL,,,,,101237,*56
00:00:48.952;B;$PGRMZ,,,*7E
00:00:49.022;B;$PGRMM,WGS 84*06
00:00:49.122;B;$GPBOD,,T,,M,,*47
00:00:49.222;B;$GPRTE,1,1,c,0*07
00:00:49.374;I;$POSMGYR,8218,-1872,-3778*65
00:00:49.374;I;$POSMACC,-512,10636,14804*7C
00:00:49.560;A;$SDDPT,,0.00,100.0*4A
00:00:49.616;A;$SDDBT,,f,,M,,F*28
00:00:50.024;B;$GPRMC,101238,V,,,,,,,110916,,*36
00:00:50.123;B;$GPRMB,V,,,,,,,,,,,,V*66
00:00:50.224;B;$GPGGA,101238,,,,,0,00,,,M,,M,,*6F
00:00:50.376;I;$POSMGYR,-475,-350,187*5F
00:00:50.376;I;$POSMACC,452,10140,14100*5F
00:00:50.327;B;$GPGSA,A,1,,,,,,,,,,,,,,,*1E
00:00:50.424;B;$GPGSV,3,1,12,07,07,335,00,08,05,283,00,10,19,166,42,13,00,048,00*79
00:00:50.563;A;$SDDPT,,0.00,100.0*4A
00:00:50.618;A;$SDDBT,,f,,M,,F*28
00:00:50.572;B;$GPGSV,3,2,12,15,01,077,00,16,65,280,00,18,40,131,00,20,33,061,39*71
00:00:50.718;B;$GPGSV,3,3,12,21,62,067,38,26,63,200,00,27,40,287,41,29,12,095,00*79
00:00:50.865;B;$PGRME,,M,,M,,M*00
00:00:50.907;B;$GPGLL,,,,,101239,*58
00:00:50.955;B;$PGRMZ,,,*7E
00:00:51.023;B;$PGRMM,WGS 84*06
00:00:51.123;B;$GPBOD,,T,,M,,*47
00:00:51.225;B;$GPRTE,1,1,c,0*07
00:00:51.377;I;$POSMGYR,27873,-32768,-11660*50
00:00:51.377;I;$POSMACC,-9936,18904,3044*73
00:00:51.560;A;$SDDPT,,0.00,100.0*4A
00:00:51.615;A;$SDDBT,,f,,M,,F*28
00:00:52.046;B;$GPRMC,101240,V,,,,,,,110916,,*39
00:00:52.126;B;$GPRMB,V,,,,,,,,,,,,V*66
00:00:52.225;B;$GPGGA,101240,,,,,0,00,,,M,,M,,*60
00:00:52.379;I;$POSMGYR,-1198,-8967,19533*5D
00:00:52.379;I;$POSMACC,-740,20048,7308*40
00:00:52.328;B;$GPGSA,A,1,,,,,,,,,,,,,,,*1E
00:00:52.425;B;$GPGSV,3,1,12,07,07,335,00,08,05,283,00,10,19,166,41,13,00,048,00*7A
00:00:52.561;A;$SDDPT,,0.00,100.0*4A
00:00:52.617;A;$SDDBT,,f,,M,,F*28
00:00:52.574;B;$GPGSV,3,2,12,15,01,077,00,16,65,280,00,18,40,131,00,20,33,061,39*71
00:00:52.719;B;$GPGSV,3,3,12,21,62,067,40,26,63,200,00,27,40,287,42,29,12,095,00*75
00:00:52.866;B;$PGRME,,M,,M,,M*00
00:00:52.907;B;$GPGLL,,,,,101241,*57
00:00:52.956;B;$PGRMZ,,,*7E
00:00:53.027;B;$PGRMM,WGS 84*06
00:00:53.127;B;$GPBOD,,T,,M,,*47
00:00:53.226;B;$GPRTE,1,1,c,0*07
00:00:53.381;I;$POSMGYR,3685,-7631,-245*59
00:00:53.381;I;$POSMACC,2736,15076,5436*5D
00:00:53.565;A;$SDDPT,,0.00,100.0*4A
00:00:53.619;A;$SDDBT,,f,,M,,F*28
00:00:54.027;B;$GPRMC,101242,V,,,,,,,110916,,*3B
00:00:54.125;B;$GPRMB,V,,,,,,,,,,,,V*66
00:00:54.227;B;$GPGGA,101242,,,,,0,00,,,M,,M,,*62
00:00:54.382;I;$POSMGYR,-3635,4696,-4026*6F
00:00:54.382;I;$POSMACC,2448,13428,3324*5C
00:00:54.330;B;$GPGSA,A,1,,,,,,,,,,,,,,,*1E
00:00:54.426;B;$GPGSV,3,1,12,07,07,335,00,08,05,283,00,10,19,166,38,13,00,048,00*74
00:00:54.560;A;$SDDPT,,0.00,100.0*4A
00:00:54.616;A;$SDDBT,,f,,M,,F*28
00:00:54.575;B;$GPGSV,3,2,12,15,01,077,00,16,65,280,00,18,40,131,00,20,33,061,42*7D
00:00:54.721;B;$GPGSV,3,3,12,21,62,067,44,26,63,200,00,27,40,287,40,29,12,095,00*73
00:00:54.868;B;$PGRME,,M,,M,,M*00
00:00:54.909;B;$GPGLL,,,,,101243,*55
00:00:54.957;B;$PGRMZ,,,*7E
00:00:55.028;B;$PGRMM,WGS 84*06
00:00:55.128;B;$GPBOD,,T,,M,,*47
00:00:55.227;B;$GPRTE,1,1,c,0*07
00:00:55.384;I;$POSMGYR,187,1247,-126*47
00:00:55.384;I;$POSMACC,-688,16252,2216*42
00:00:55.562;A;$SDDPT,,0.00,100.0*4A
00:00:55.618;A;$SDDBT,,f,,M,,F*28
00:00:56.028;B;$GPRMC,101244,V,,,,,,,110916,,*3D
00:00:56.127;B;$GPRMB,V,,,,,,,,,,,,V*66
00:00:56.228;B;$GPGGA,101244,,,,,0,00,,,M,,M,,*64
00:00:56.385;I;$POSMGYR,-174,-86,-78*7F
00:00:56.385;I;$POSMACC,2572,16564,684*64
00:00:56.331;B;$GPGSA,A,1,,,,,,,,,,,,,,,*1E
00:00:56.429;B;$GPGSV,3,1,12,07,07,335,45,08,05,283,00,10,19,166,36,13,00,048,00*7B
00:00:56.558;A;$SDDPT,,0.00,100.0*4A
00:00:56.614;A;$SDDBT,,f,,M,,F*28
00:00:56.576;B;$GPGSV,3,2,12,15,01,077,00,16,65,280,00,18,40,131,00,20,33,061,41*7E
00:00:56.722;B;$GPGSV,3,3,12,21,62,067,44,26,63,200,00,27,40,287,43,29,12,095,00*70
00:00:56.869;B;$PGRME,,M,,M,,M*00
00:00:56.910;B;$GPGLL,,,,,101245,*53
00:00:56.960;B;$PGRMZ,,,*7E
00:00:57.028;B;$PGRMM,WGS 84*06
00:00:57.131;B;$GPBOD,,T,,M,,*47
00:00:57.230;B;$GPRTE,1,1,c,0*07
00:00:57.387;I;$POSMGYR,-376,-387,-471*70
00:00:57.387;I;$POSMACC,2640,16544,1400*5B
00:00:57.563;A;$SDDPT,,0.00,100.0*4A
00:00:57.616;A;$SDDBT,,f,,M,,F*28
00:00:58.031;B;$GPRMC,101246,V,,,,,,,110916,,*3F
00:00:58.130;B;$GPRMB,V,,,,,,,,,,,,V*66
00:00:58.230;B;$GPGGA,101246,,,,,0,00,,,M,,M,,*66
00:00:58.388;I;$POSMGYR,1801,981,-912*4E
00:00:58.388;I;$POSMACC,932,15956,992*58
00:00:58.334;B;$GPGSA,A,1,,,,,,,,,,,,,,,*1E
00:00:58.430;B;$GPGSV,3,1,12,07,07,335,44,08,05,283,00,10,19,166,34,13,00,048,00*78
00:00:58.568;A;$SDDPT,,0.00,100.0*4A
00:00:58.621;A;$SDDBT,,f,,M,,F*28
00:00:58.578;B;$GPGSV,3,2,12,15,01,077,00,16,65,280,00,18,40,131,00,20,33,061,39*71
00:00:58.725;B;$GPGSV,3,3,12,21,62,067,44,26,63,200,00,27,40,287,44,29,12,095,00*77
00:00:58.871;B;$PGRME,,M,,M,,M*00
00:00:58.914;B;$GPGLL,,,,,101247,*51
00:00:58.962;B;$PGRMZ,,,*7E
00:00:59.031;B;$PGRMM,WGS 84*06
00:00:59.131;B;$GPBOD,,T,,M,,*47
00:00:59.231;B;$GPRTE,1,1,c,0*07
00:00:59.389;I;$POSMGYR,-400,-728,449*51
00:00:59.389;I;$POSMACC,1712,15984,-1932*7C
00:00:59.558;A;$SDDPT,,0.00,100.0*4A
00:00:59.615;A;$SDDBT,,f,,M,,F*28
00:01:00.032;B;$GPRMC,101248,V,,,,,,,110916,,*31
00:01:00.131;B;$GPRMB,V,,,,,,,,,,,,V*66
00:01:00.233;B;$GPGGA,101248,,,,,0,00,,,M,,M,,*68
00:01:00.390;I;$POSMGYR,-228,252,-184*51
00:01:00.390;I;$POSMACC,736,16324,-2256*42
00:01:00.337;B;$GPGSA,A,1,,,,,,,,,,,,,,,*1E
00:01:00.431;B;$GPGSV,3,1,12,07,07,335,44,08,05,283,00,10,19,166,35,13,00,048,00*79
00:01:00.563;A;$SDDPT,,0.00,100.0*4A
00:01:00.618;A;$SDDBT,,f,,M,,F*28
00:01:00.579;B;$GPGSV,3,2,12,15,01,077,00,16,65,280,00,18,40,131,00,20,33,061,39*71
00:01:00.727;B;$GPGSV,3,3,12,21,62,067,43,26,63,200,00,27,40,287,45,29,12,095,00*71
00:01:00.872;B;$PGRME,,M,,M,,M*00
00:01:00.915;B;$GPGLL,,,,,101249,*5F
00:01:00.963;B;$PGRMZ,,,*7E
00:01:01.034;B;$PGRMM,WGS 84*06
00:01:01.133;B;$GPBOD,,T,,M,,*47
00:01:01.235;B;$GPRTE,1,1,c,0*07
00:01:01.391;I;$POSMGYR,-326,-247,-474*7D
00:01:01.391;I;$POSMACC,856,15920,-2140*42
00:01:01.558;A;$SDDPT,,0.00,100.0*4A
00:01:01.613;A;$SDDBT,,f,,M,,F*28
00:01:02.033;B;$GPRMC,101250,V,,,,,,,110916,,*38
00:01:02.133;B;$GPRMB,V,,,,,,,,,,,,V*66
00:01:02.235;B;$GPGGA,101250,,,,,0,00,,,M,,M,,*61
00:01:02.392;I;$POSMGYR,-231,963,711*77
00:01:02.392;I;$POSMACC,-836,15996,-1712*66
00:01:02.339;B;$GPGSA,A,1,,,,,,,,,,,,,,,*1E
00:01:02.435;B;$GPGSV,3,1,12,07,07,335,42,08,05,283,00,10,19,166,33,13,00,048,00*79
00:01:02.562;A;$SDDPT,,0.00,100.0*4A
00:01:02.615;A;$SDDBT,,f,,M,,F*28
00:01:02.581;B;$GPGSV,3,2,12,15,01,077,00,16,65,280,00,18,40,131,00,20,33,061,39*71
00:01:02.728;B;$GPGSV,3,3,12,21,62,067,42,26,63,200,00,27,40,287,44,29,12,095,00*71
00:01:02.874;B;$PGRME,,M,,M,,M*00
00:01:02.917;B;$GPGLL,,,,,101251,*56
00:01:02.964;B;$PGRMZ,,,*7E
00:01:03.035;B;$PGRMM,WGS 84*06
00:01:03.135;B;$GPBOD,,T,,M,,*47
00:01:03.236;B;$GPRTE,1,1,c,0*07
00:01:03.394;I;$POSMGYR,-348,15,-501*6E
00:01:03.394;I;$POSMACC,536,16116,-2452*41
00:01:03.564;A;$SDDPT,,0.00,100.0*4A
00:01:03.618;A;$SDDBT,,f,,M,,F*28
00:01:04.036;B;$GPRMC,101252,V,,,,,,,110916,,*3A
00:01:04.136;B;$GPRMB,V,,,,,,,,,,,,V*66
00:01:04.236;B;$GPGGA,101252,,,,,0,00,,,M,,M,,*63
00:01:04.395;I;$POSMGYR,-332,7,101*79
00:01:04.395;I;$POSMACC,328,16092,-2480*4A
00:01:04.340;B;$GPGSA,A,1,,,,,,,,,,,,,,,*1E
00:01:04.437;B;$GPGSV,3,1,12,07,07,335,42,08,05,283,00,10,19,166,34,13,00,048,00*7E
00:01:04.560;A;$SDDPT,,0.00,100.0*4A
00:01:04.614;A;$SDDBT,,f,,M,,F*28
00:01:04.586;B;$GPGSV,3,2,12,15,01,077,00,16,65,280,00,18,40,131,00,20,33,061,39*71
00:01:04.731;B;$GPGSV,3,3,12,21,62,067,42,26,63,200,00,27,40,287,44,29,12,095,00*71
00:01:04.877;B;$PGRME,,M,,M,,M*00
00:01:04.920;B;$GPGLL,,,,,101253,*54
00:01:04.967;B;$PGRMZ,,,*7E
00:01:05.036;B;$PGRMM,WGS 84*06
00:01:05.138;B;$GPBOD,,T,,M,,*47
00:01:05.238;B;$GPRTE,1,1,c,0*07
00:01:05.396;I;$POSMGYR,-568,-277,17*6E
00:01:05.396;I;$POSMACC,500,16384,-1580*40
00:01:05.562;A;$SDDPT,,0.00,100.0*4A
00:01:05.616;A;$SDDBT,,f,,M,,F*28
00:01:06.037;B;$GPRMC,101254,V,,,,,,,110916,,*3C
00:01:06.137;B;$GPRMB,V,,,,,,,,,,,,V*66
00:01:06.237;B;$GPGGA,101254,,,,,0,00,,,M,,M,,*65
00:01:06.398;I;$POSMGYR,-393,446,-1800*67
00:01:06.398;I;$POSMACC,564,17292,-1220*48
00:01:06.340;B;$GPGSA,A,1,,,,,,,,,,,,,,,*1E
00:01:06.438;B;$GPGSV,3,1,12,07,07,335,43,08,05,283,00,10,19,166,35,13,00,048,00*7E
00:01:06.558;A;$SDDPT,,0.00,100.0*4A
00:01:06.615;A;$SDDBT,,f,,M,,F*28
00:01:06.586;B;$GPGSV,3,2,12,15,02,077,00,16,65,280,00,18,40,131,00,20,33,061,38*73
00:01:06.732;B;$GPGSV,3,3,12,21,62,067,41,26,63,200,00,27,40,287,45,29,12,095,00*73
00:01:06.878;B;$PGRME,,M,,M,,M*00
00:01:06.921;B;$GPGLL,,,,,101255,*52
00:01:06.968;B;$PGRMZ,,,*7E
00:01:07.040;B;$PGRMM,WGS 84*06
00:01:07.139;B;$GPBOD,,T,,M,,*47
00:01:07.238;B;$GPRTE,1,1,c,0*07
00:01:07.399;I;$POSMGYR,-274,-1163,155*64
00:01:07.399;I;$POSMACC,1156,16264,-824*4B
00:01:07.560;A;$SDDPT,,0.00,100.0*4A
00:01:07.617;A;$SDDBT,,f,,M,,F*28
00:01:08.040;B;$GPRMC,101256,V,,,,,,,110916,,*3E
00:01:08.141;B;$GPRMB,V,,,,,,,,,,,,V*66
00:01:08.240;B;$GPGGA,101256,,,,,0,00,,,M,,M,,*67
00:01:08.402;I;$POSMGYR,467,295,-912*7D
00:01:08.402;I;$POSMACC,1344,15792,-2744*7E
00:01:08.344;B;$GPGSA,A,1,,,,,,,,,,,,,,,*1E
00:01:08.439;B;$GPGSV,3,1,12,07,07,335,44,08,05,283,00,10,19,166,33,13,00,048,00*7F
00:01:08.563;A;$SDDPT,,0.00,100.0*4A
00:01:08.619;A;$SDDBT,,f,,M,,F*28
00:01:08.587;B;$GPGSV,3,2,12,15,02,077,00,16,65,280,00,18,40,131,00,20,33,061,38*73
00:01:08.734;B;$GPGSV,3,3,12,21,62,067,39,26,63,200,00,27,40,287,45,29,12,095,00*7C
00:01:08.881;B;$PGRME,,M,,M,,M*00
00:01:08.922;B;$GPGLL,,,,,101257,*50
00:01:08.969;B;$PGRMZ,,,*7E
00:01:09.041;B;$PGRMM,WGS 84*06
00:01:09.140;B;$GPBOD,,T,,M,,*47
00:01:09.239;B;$GPRTE,1,1,c,0*07
00:01:09.403;I;$POSMGYR,-406,29,94*78
00:01:09.403;I;$POSMACC,988,17528,-2476*46
00:01:09.559;A;$SDDPT,,0.00,100.0*4A
00:01:09.615;A;$SDDBT,,f,,M,,F*28
00:01:10.041;B;$GPRMC,101258,V,,,,,,,110916,,*30
00:01:10.141;B;$GPRMB,V,,,,,,,,,,,,V*66
00:01:10.243;B;$GPGGA,101258,,,,,0,00,,,M,,M,,*69
00:01:10.405;I;$POSMGYR,-671,-1163,1056*56
00:01:10.405;I;$POSMACC,940,16096,-2720*43
00:01:10.349;B;$GPGSA,A,1,,,,,,,,,,,,,,,*1E
00:01:10.441;B;$GPGSV,3,1,12,07,07,335,45,08,05,283,00,10,19,166,34,13,00,048,00*79
00:01:10.562;A;$SDDPT,,0.00,100.0*4A
00:01:10.616;A;$SDDBT,,f,,M,,F*28
00:01:10.590;B;$GPGSV,3,2,12,15,02,077,00,16,65,279,00,18,40,131,00,20,33,061,36*7B
00:01:10.738;B;$GPGSV,3,3,12,21,62,067,39,26,63,200,00,27,40,287,45,29,12,095,00*7C
00:01:10.882;B;$PGRME,,M,,M,,M*00
00:01:10.925;B;$GPGLL,,,,,101259,*5E
00:01:10.973;B;$PGRMZ,,,*7E
00:01:11.044;B;$PGRMM,WGS 84*06
00:01:11.144;B;$GPBOD,,T,,M,,*47
00:01:11.245;B;$GPRTE,1,1,c,0*07
00:01:11.406;I;$POSMGYR,-477,-87,346*6B
00:01:11.406;I;$POSMACC,952,16340,-2472*4C
00:01:11.558;A;$SDDPT,,0.00,100.0*4A
00:01:11.612;A;$SDDBT,,f,,M,,F*28
00:01:12.044;B;$GPRMC,101300,V,,,,,,,110916,,*3C
00:01:12.143;B;$GPRMB,V,,,,,,,,,,,,V*66
00:01:12.245;B;$GPGGA,101300,,,,,0,00,,,M,,M,,*65
00:01:12.408;I;$POSMGYR,-547,65,114*4D
00:01:12.408;I;$POSMACC,1940,16020,-1956*73
00:01:12.349;B;$GPGSA,A,1,,,,,,,,,,,,,,,*1E
00:01:12.443;B;$GPGSV,3,1,12,07,07,335,45,08,05,283,00,10,19,166,35,13,00,048,00*78
00:01:12.559;A;$SDDPT,,0.00,100.0*4A
00:01:12.614;A;$SDDBT,,f,,M,,F*28
00:01:12.592;B;$GPGSV,3,2,12,15,02,077,00,16,65,279,00,18,40,131,00,20,33,061,37*7A
00:01:12.738;B;$GPGSV,3,3,12,21,62,067,41,26,63,200,00,27,40,287,45,29,12,095,00*73
00:01:12.886;B;$PGRME,,M,,M,,M*00
00:01:12.927;B;$GPGLL,,,,,101301,*52
00:01:12.974;B;$PGRMZ,,,*7E
00:01:13.044;B;$PGRMM,WGS 84*06
00:01:13.147;B;$GPBOD,,T,,M,,*47
00:01:13.246;B;$GPRTE,1,1,c,0*07
00:01:13.409;I;$POSMGYR,364,82,-317*42
00:01:13.409;I;$POSMACC,2560,16852,-2668*72
00:01:13.564;A;$SDDPT,,0.00,100.0*4A
00:01:13.617;A;$SDDBT,,f,,M,,F*28
00:01:14.045;B;$GPRMC,101302,V,,,,,,,110916,,*3E
00:01:14.146;B;$GPRMB,V,,,,,,,,,,,,V*66
00:01:14.245;B;$GPGGA,101302,,,,,0,00,,,M,,M,,*67
00:01:14.350;B;$GPGSA,A,1,,,,,,,,,,,,,,,*1E
00:01:14.413;I;$POSMGYR,-316,9,-645*5B
00:01:14.413;I;$POSMACC,2316,15932,-2728*74
00:01:14.446;B;$GPGSV,3,1,12,07,07,335,45,08,05,283,00,10,19,166,36,13,00,048,00*7B
00:01:14.558;A;$SDDPT,,0.00,100.0*4A
00:01:14.613;A;$SDDBT,,f,,M,,F*28
00:01:14.593;B;$GPGSV,3,2,12,15,02,077,00,16,65,279,00,18,40,131,00,20,33,061,38*75
00:01:14.739;B;$GPGSV,3,3,12,21,62,067,41,26,63,200,00,27,40,287,45,29,12,095,00*73
00:01:14.888;B;$PGRME,,M,,M,,M*00
00:01:14.930;B;$GPGLL,,,,,101303,*50
00:01:14.977;B;$PGRMZ,,,*7E
00:01:15.046;B;$PGRMM,WGS 84*06
00:01:15.146;B;$GPBOD,,T,,M,,*47
00:01:15.247;B;$GPRTE,1,1,c,0*07
00:01:15.413;I;$POSMGYR,-349,194,206*7A
00:01:15.413;I;$POSMACC,2640,15908,-2808*76
00:01:15.563;A;$SDDPT,,0.00,100.0*4A
00:01:15.616;A;$SDDBT,,f,,M,,F*28
00:01:16.048;B;$GPRMC,101304,V,,,,,,,110916,,*38
00:01:16.148;B;$GPRMB,V,,,,,,,,,,,,V*66
00:01:16.248;B;$GPGGA,101304,,,,,0,00,,,M,,M,,*61
00:01:16.352;B;$GPGSA,A,1,,,,,,,,,,,,,,,*1E
00:01:16.416;I;$POSMGYR,-485,-266,240*5C
00:01:16.416;I;$POSMACC,2508,15796,-3160*76
00:01:16.447;B;$GPGSV,3,1,12,07,07,335,46,08,05,283,00,10,19,166,36,13,00,048,00*78
00:01:16.557;A;$SDDPT,,0.00,100.0*4A
00:01:16.613;A;$SDDBT,,f,,M,,F*28
00:01:16.596;B;$GPGSV,3,2,12,15,02,077,00,16,65,279,00,18,40,131,00,20,33,061,37*7A
00:01:16.740;B;$GPGSV,3,3,12,21,62,067,41,26,63,200,00,27,40,287,45,29,12,095,00*73
00:01:16.889;B;$PGRME,,M,,M,,M*00
00:01:16.930;B;$GPGLL,,,,,101305,*56
00:01:16.977;B;$PGRMZ,,,*7E
00:01:17.049;B;$PGRMM,WGS 84*06
00:01:17.149;B;$GPBOD,,T,,M,,*47
00:01:17.249;B;$GPRTE,1,1,c,0*07
00:01:17.416;I;$POSMGYR,-482,563,-1093*64
00:01:17.416;I;$POSMACC,2596,15832,-2668*7E
00:01:17.559;A;$SDDPT,,0.00,100.0*4A
00:01:17.616;A;$SDDBT,,f,,M,,F*28
00:01:18.050;B;$GPRMC,101306,V,,,,,,,110916,,*3A
00:01:18.149;B;$GPRMB,V,,,,,,,,,,,,V*66
00:01:18.249;B;$GPGGA,101306,,,,,0,00,,,M,,M,,*63
00:01:18.356;B;$GPGSA,A,1,,,,,,,,,,,,,,,*1E
00:01:18.420;I;$POSMGYR,-170,-105,-366*7D
00:01:18.420;I;$POSMACC,984,15744,-3272*43
00:01:18.451;B;$GPGSV,3,1,12,07,07,335,46,08,05,283,00,10,19,166,35,13,00,048,00*7B
00:01:18.563;A;$SDDPT,,0.00,100.0*4A
00:01:18.618;A;$SDDBT,,f,,M,,F*28
00:01:18.598;B;$GPGSV,3,2,12,15,02,077,00,16,65,279,00,18,41,131,00,20,33,061,36*7A
00:01:18.744;B;$GPGSV,3,3,12,21,62,067,40,26,63,200,00,27,40,287,44,29,12,095,00*73
00:01:18.891;B;$PGRME,,M,,M,,M*00
00:01:18.934;B;$GPGLL,,,,,101307,*54
00:01:18.981;B;$PGRMZ,,,*7E
00:01:19.049;B;$PGRMM,WGS 84*06
00:01:19.150;B;$GPBOD,,T,,M,,*47
00:01:19.250;B;$GPRTE,1,1,c,0*07
00:01:19.422;I;$POSMGYR,-1464,-1385,991*58
00:01:19.422;I;$POSMACC,3304,16516,-1768*78
00:01:19.559;A;$SDDPT,,0.00,100.0*4A
00:01:19.612;A;$SDDBT,,f,,M,,F*28
00:01:20.051;B;$GPRMC,101308,V,,,,,,,110916,,*34
00:01:20.151;B;$GPRMB,V,,,,,,,,,,,,V*66
00:01:20.250;B;$GPGGA,101308,,,,,0,00,,,M,,M,,*6D
00:01:20.357;B;$GPGSA,A,1,,,,,,,,,,,,,,,*1E
00:01:20.424;I;$POSMGYR,-168,-96,-212*4D
00:01:20.424;I;$POSMACC,1412,16304,-2508*78
00:01:20.451;B;$GPGSV,3,1,12,07,07,335,47,08,05,283,00,10,19,166,34,13,00,048,00*7B
00:01:20.561;A;$SDDPT,,0.00,100.0*4A
00:01:20.616;A;$SDDBT,,f,,M,,F*28
00:01:20.599;B;$GPGSV,3,2,12,15,02,077,00,16,65,279,00,18,41,131,00,20,33,061,35*79
00:01:20.746;B;$GPGSV,3,3,12,21,62,067,40,26,63,200,00,27,40,287,45,29,12,095,00*72
00:01:20.891;B;$PGRME,,M,,M,,M*00
00:01:20.932;B;$GPGLL,,,,,101309,*5A
00:01:20.983;B;$PGRMZ,,,*7E
00:01:21.051;B;$PGRMM,WGS 84*06
00:01:21.156;B;$GPBOD,,T,,M,,*47
00:01:21.255;B;$GPRTE,1,1,c,0*07
00:01:21.424;I;$POSMGYR,-247,-28,-382*4E
00:01:21.424;I;$POSMACC,220,16132,-2248*4A
00:01:21.558;A;$SDDPT,,0.00,100.0*4A
00:01:21.611;A;$SDDBT,,f,,M,,F*28
00:01:22.053;B;$GPRMC,101310,V,,,,,,,110916,,*3D
00:01:22.156;B;$GPRMB,V,,,,,,,,,,,,V*66
00:01:22.256;B;$GPGGA,101311,,,,,0,00,,,M,,M,,*65
00:01:22.365;B;$GPGSA,A,1,,,,,,,,,,,,,,,*1E
00:01:22.427;I;$POSMGYR,-406,-726,-436*7C
00:01:22.427;I;$POSMACC,1464,15716,-3248*7F
00:01:22.455;B;$GPGSV,3,1,12,07,07,335,47,08,05,283,00,10,19,166,33,13,00,048,00*7C
00:01:22.561;A;$SDDPT,,0.00,100.0*4A
00:01:22.615;A;$SDDBT,,f,,M,,F*28
00:01:22.605;B;$GPGSV,3,2,12,15,02,077,00,16,65,279,00,18,41,131,00,20,33,061,33*7F
00:01:22.749;B;$GPGSV,3,3,12,21,62,067,41,26,63,200,00,27,40,287,45,29,12,095,00*73
00:01:22.895;B;$PGRME,,M,,M,,M*00
00:01:22.938;B;$GPGLL,,,,,101311,*53
00:01:22.988;B;$PGRMZ,,,*7E
00:01:23.055;B;$PGRMM,WGS 84*06
00:01:23.154;B;$GPBOD,,T,,M,,*47
00:01:23.254;B;$GPRTE,1,1,c,0*07
00:01:23.428;I;$POSMGYR,-391,-243,-24*44
00:01:23.428;I;$POSMACC,2148,16444,-3252*7B
00:01:23.561;A;$SDDPT,,0.00,100.0*4A
00:01:23.617;A;$SDDBT,,f,,M,,F*28
00:01:24.056;B;$GPRMC,101312,V,,,,,,,110916,,*3F
00:01:24.154;B;$GPRMB,V,,,,,,,,,,,,V*66
00:01:24.255;B;$GPGGA,101312,,,,,0,00,,,M,,M,,*66
00:01:24.360;B;$GPGSA,A,1,,,,,,,,,,,,,,,*1E
00:01:24.429;I;$POSMGYR,-413,-79,400*6D
00:01:24.429;I;$POSMACC,2136,15776,-2416*74
00:01:24.454;B;$GPGSV,3,1,12,07,07,335,47,08,05,283,00,10,19,166,33,13,00,048,00*7C
00:01:24.559;A;$SDDPT,,0.00,100.0*4A
00:01:24.613;A;$SDDBT,,f,,M,,F*28
00:01:24.602;B;$GPGSV,3,2,12,15,02,077,00,16,65,279,00,18,41,131,00,20,33,061,32*7E
00:01:24.748;B;$GPGSV,3,3,12,21,62,067,41,26,63,200,00,27,40,287,45,29,12,095,00*73
00:01:24.896;B;$PGRME,,M,,M,,M*00
00:01:24.937;B;$GPGLL,,,,,101313,*51
00:01:24.984;B;$PGRMZ,,,*7E
00:01:25.056;B;$PGRMM,WGS 84*06
00:01:25.155;B;$GPBOD,,T,,M,,*47
00:01:25.256;B;$GPRTE,1,1,c,0*07
00:01:25.432;I;$POSMGYR,-568,-151,246*5F
00:01:25.432;I;$POSMACC,2600,15928,-2200*72
00:01:25.562;A;$SDDPT,,0.00,100.0*4A
00:01:25.616;A;$SDDBT,,f,,M,,F*28
00:01:26.057;B;$GPRMC,101314,V,,,,,,,110916,,*39
00:01:26.157;B;$GPRMB,V,,,,,,,,,,,,V*66
00:01:26.257;B;$GPGGA,101314,,,,,0,00,,,M,,M,,*60
00:01:26.361;B;$GPGSA,A,1,,,,,,,,,,,,,,,*1E
00:01:26.434;I;$POSMGYR,-91,-123,132*69
00:01:26.434;I;$POSMACC,2612,16072,-2500*73
00:01:26.458;B;$GPGSV,3,1,12,07,07,335,47,08,05,283,00,10,19,166,32,13,00,048,00*7D
00:01:26.556;A;$SDDPT,,0.00,100.0*4A
00:01:26.611;A;$SDDBT,,f,,M,,F*28
00:01:26.603;B;$GPGSV,3,2,12,15,02,077,00,16,65,279,00,18,41,131,00,20,33,061,34*78
00:01:26.752;B;$GPGSV,3,3,12,21,62,067,42,26,63,200,00,27,40,287,44,29,12,095,00*71
00:01:26.898;B;$PGRME,,M,,M,,M*00
00:01:26.938;B;$GPGLL,,,,,101315,*57
00:01:26.988;B;$PGRMZ,,,*7E
00:01:27.057;B;$PGRMM,WGS 84*06
00:01:27.157;B;$GPBOD,,T,,M,,*47
00:01:27.259;B;$GPRTE,1,1,c,0*07
00:01:27.435;I;$POSMGYR,90,-626,193*4C
00:01:27.435;I;$POSMACC,536,16484,-2384*43
00:01:27.559;A;$SDDPT,,0.00,100.0*4A
00:01:27.614;A;$SDDBT,,f,,M,,F*28
00:01:28.059;B;$GPRMC,101316,V,,,,,,,110916,,*3B
00:01:28.160;B;$GPRMB,V,,,,,,,,,,,,V*66
00:01:28.260;B;$GPGGA,101317,,,,,0,00,,,M,,M,,*63
00:01:28.365;B;$GPGSA,A,1,,,,,,,,,,,,,,,*1E
00:01:28.438;I;$POSMGYR,214,835,-1050*41
00:01:28.438;I;$POSMACC,1312,16200,-2376*75
00:01:28.459;B;$GPGSV,3,1,12,07,07,335,48,08,05,283,00,10,19,166,31,13,00,048,00*71
00:01:28.562;A;$SDDPT,,0.00,100.0*4A
00:01:28.617;A;$SDDBT,,f,,M,,F*28
00:01:28.607;B;$GPGSV,3,2,12,15,02,077,00,16,65,279,00,18,41,131,00,20,33,061,33*7F
00:01:28.754;B;$GPGSV,3,3,12,21,62,067,41,26,63,200,00,27,40,287,44,29,12,095,00*72
00:01:28.901;B;$PGRME,,M,,M,,M*00
00:01:28.942;B;$GPGLL,,,,,101317,*55
00:01:28.989;B;$PGRMZ,,,*7E
00:01:29.061;B;$PGRMM,WGS 84*06
00:01:29.158;B;$GPBOD,,T,,M,,*47
00:01:29.261;B;$GPRTE,1,1,c,0*07
00:01:29.439;I;$POSMGYR,-916,10,1109*7A
00:01:29.439;I;$POSMACC,676,15908,-1924*4D
00:01:29.558;A;$SDDPT,,0.00,100.0*4A
00:01:29.614;A;$SDDBT,,f,,M,,F*28
00:01:30.060;B;$GPRMC,101318,V,,,,,,,110916,,*35
00:01:30.161;B;$GPRMB,V,,,,,,,,,,,,V*66
00:01:30.259;B;$GPGGA,101319,,,,,0,00,,,M,,M,,*6D
00:01:30.365;B;$GPGSA,A,1,,,,,,,,,,,,,,,*1E
00:01:30.441;I;$POSMGYR,-274,-96,509*63
00:01:30.441;I;$POSMACC,1100,15416,-1948*72
00:01:30.460;B;$GPGSV,3,1,12,07,07,335,48,08,05,283,00,10,19,166,31,13,00,048,00*71
00:01:30.561;A;$SDDPT,,0.00,100.0*4A
00:01:30.616;A;$SDDBT,,f,,M,,F*28
00:01:30.608;B;$GPGSV,3,2,12,15,02,077,00,16,65,279,00,18,41,131,00,20,33,061,31*7D
00:01:30.756;B;$GPGSV,3,3,12,21,61,066,41,26,63,200,00,27,40,287,44,29,12,095,00*70
00:01:30.903;B;$PGRME,,M,,M,,M*00
00:01:30.943;B;$GPGLL,,,,,101319,*5B
00:01:30.991;B;$PGRMZ,,,*7E
00:01:31.060;B;$PGRMM,WGS 84*06
00:01:31.162;B;$GPBOD,,T,,M,,*47
00:01:31.261;B;$GPRTE,1,1,c,0*07
00:01:31.442;I;$POSMGYR,-368,46,265*42
00:01:31.442;I;$POSMACC,3536,15676,-3128*79
00:01:31.556;A;$SDDPT,,0.00,100.0*4A
00:01:31.611;A;$SDDBT,,f,,M,,F*28
00:01:32.064;B;$GPRMC,101304,A,4721.185,N,00832.165,E,000.0,360.0,110916,000.2,E*7F
00:01:32.212;B;$GPRMB,A,,,,,,,,,,,,V*71
00:01:32.266;B;$GPGGA,101305,4721.185,N,00832.165,E,1,00,2.3,269.3,M,48.0,M,,*40
00:01:32.444;I;$POSMGYR,-850,-1273,402*6D
00:01:32.444;I;$POSMACC,1296,16048,-2680*7A
00:01:32.407;B;$GPGSA,A,2,07,,,,,,,,21,,27,,2.3,2.3,*1C
00:01:32.559;A;$SDDPT,,0.00,100.0*4A
00:01:32.493;B;$GPGSV,3,1,12,07,07,335,48,08,05,283,00,10,19,166,33,13,00,048,00*73
00:01:32.615;A;$SDDBT,,f,,M,,F*28
00:01:32.641;B;$GPGSV,3,2,12,15,02,077,00,16,65,279,00,18,41,131,00,20,33,061,31*7D
00:01:32.786;B;$GPGSV,3,3,12,21,61,066,41,26,63,200,00,27,40,287,43,29,12,095,00*77
00:01:32.936;B;$PGRME,9.1,M,,M,9.1,M*00
00:01:32.988;B;$GPGLL,4721.184,N,00832.164,E,101305,A*2B
00:01:33.079;B;$PGRMZ,884,f,2*1E
00:01:33.117;B;$PGRMM,WGS 84*06
00:01:33.164;B;$GPBOD,,T,,M,,*47
00:01:33.264;B;$GPRTE,1,1,c,0*07
00:01:33.445;I;$POSMGYR,-693,23,-81*55
00:01:33.445;I;$POSMACC,1720,16300,-2684*79
00:01:33.561;A;$SDDPT,,0.00,100.0*4A
00:01:33.618;A;$SDDBT,,f,,M,,F*28
00:01:34.064;B;$GPRMC,101307,A,4721.184,N,00832.165,E,000.0,360.0,110916,000.2,E*7D
00:01:34.211;B;$GPRMB,A,,,,,,,,,,,,V*71
00:01:34.268;B;$GPGGA,101307,4721.183,N,00832.164,E,1,03,2.3,269.3,M,48.0,M,,*46
00:01:34.447;I;$POSMGYR,-414,0,-271*54
00:01:34.447;I;$POSMACC,2404,16264,-2708*79
00:01:34.405;B;$GPGSA,A,2,07,,,,,,,,21,,27,,2.3,2.3,*1C
00:01:34.557;A;$SDDPT,,0.00,100.0*4A
00:01:34.493;B;$GPGSV,3,1,12,07,07,335,48,08,05,283,00,10,19,166,33,13,00,048,00*73
00:01:34.614;A;$SDDBT,,f,,M,,F*28
00:01:34.642;B;$GPGSV,3,2,12,15,02,077,00,16,65,279,00,18,41,131,00,20,33,061,33*7F
00:01:34.786;B;$GPGSV,3,3,12,21,61,066,40,26,63,200,00,27,40,287,43,29,12,095,00*76
00:01:34.934;B;$PGRME,9.1,M,,M,9.1,M*00
00:01:34.988;B;$GPGLL,4721.183,N,00832.164,E,101307,A*2E
00:01:35.077;B;$PGRMZ,884,f,2*1E
00:01:35.118;B;$PGRMM,WGS 84*06
00:01:35.165;B;$GPBOD,,T,,M,,*47
00:01:35.264;B;$GPRTE,1,1,c,0*07
00:01:35.448;I;$POSMGYR,-91,-275,-131*47
00:01:35.448;I;$POSMACC,1300,15608,-2752*7B
00:01:35.560;A;$SDDPT,,0.00,100.0*4A
00:01:35.616;A;$SDDBT,,f,,M,,F*28
00:01:36.109;B;$GPRMC,101308,A,4721.182,N,00832.164,E,000.0,360.0,110916,000.2,E*75
00:01:36.257;B;$GPRMB,A,,,,,,,,,,,,V*71
00:01:36.310;B;$GPGGA,101309,4721.181,N,00832.163,E,1,03,2.3,269.3,M,48.0,M,,*4D
00:01:36.450;I;$POSMGYR,200,1177,-1895*7B
00:01:36.450;I;$POSMACC,2372,15016,-1348*78
00:01:36.450;B;$GPGSA,A,2,07,,,,,,,,21,,27,,2.3,2.3,*1C
00:01:36.556;A;$SDDPT,,0.00,100.0*4A
00:01:36.612;A;$SDDBT,,f,,M,,F*28
00:01:36.538;B;$GPGSV,3,1,12,07,07,335,48,08,05,283,00,10,19,166,34,13,00,048,00*74
00:01:36.685;B;$GPGSV,3,2,12,15,02,077,00,16,65,279,00,18,41,131,00,20,33,061,34*78
00:01:36.832;B;$GPGSV,3,3,12,21,61,066,39,26,63,200,00,27,40,287,42,29,12,095,00*79
00:01:36.978;B;$PGRME,9.1,M,,M,9.1,M*00
00:01:37.033;B;$GPGLL,4721.181,N,00832.163,E,101309,A*25
00:01:37.121;B;$PGRMZ,884,f,2*1E
00:01:37.162;B;$PGRMM,WGS 84*06
00:01:37.199;B;$GPBOD,,T,,M,,*47
00:01:37.267;B;$GPRTE,1,1,c,0*07
00:01:37.453;I;$POSMGYR,-531,-528,755*5E
00:01:37.453;I;$POSMACC,2480,15824,-2360*72
00:01:37.558;A;$SDDPT,,0.00,100.0*4A
00:01:37.614;A;$SDDBT,,f,,M,,F*28
00:01:38.144;B;$GPRMC,101310,A,4721.181,N,00832.163,E,000.0,360.0,110916,000.2,E*78
00:01:38.292;B;$GPRMB,A,,,,,,,,,,,,V*71
00:01:38.455;I;$POSMGYR,-203,258,110*72
00:01:38.455;I;$POSMACC,2840,16108,-2348*7C
00:01:38.345;B;$GPGGA,101311,4721.181,N,00832.163,E,1,03,2.3,269.3,M,48.0,M,,*44
00:01:38.487;B;$GPGSA,A,2,07,,,,,,,,21,,27,,2.3,2.3,*1C
00:01:38.562;A;$SDDPT,,0.00,100.0*4A
00:01:38.617;A;$SDDBT,,f,,M,,F*28
00:01:38.574;B;$GPGSV,3,1,12,07,07,335,48,08,05,283,00,10,19,166,34,13,00,048,00*74
00:01:38.721;B;$GPGSV,3,2,12,15,02,077,00,16,65,279,00,18,41,131,00,20,33,061,34*78
00:01:38.868;B;$GPGSV,3,3,12,21,61,066,38,26,63,200,00,27,40,287,41,29,12,095,00*7B
00:01:39.014;B;$PGRME,9.1,M,,M,9.1,M*00
00:01:39.067;B;$GPGLL,4721.182,N,00832.162,E,101311,A*2E
00:01:39.156;B;$PGRMZ,884,f,2*1E
00:01:39.197;B;$PGRMM,WGS 84*06
00:01:39.234;B;$GPBOD,,T,,M,,*47
00:01:39.274;B;$GPRTE,1,1,c,0*07
00:01:39.458;I;$POSMGYR,-448,-736,-530*70
00:01:39.458;I;$POSMACC,1900,16424,-2596*74
00:01:39.557;A;$SDDPT,,0.00,100.0*4A
00:01:39.614;A;$SDDBT,,f,,M,,F*28
00:01:40.131;B;$GPRMC,101312,A,4721.182,N,00832.162,E,000.0,360.0,110916,000.2,E*78
00:01:40.280;B;$GPRMB,A,,,,,,,,,,,,V*71
00:01:40.461;I;$POSMGYR,-397,61,-686*63
00:01:40.461;I;$POSMACC,2168,15856,-3000*70
00:01:40.333;B;$GPGGA,101313,4721.182,N,00832.161,E,1,03,2.3,269.3,M,48.0,M,,*47
00:01:40.474;B;$GPGSA,A,2,07,,,,,,,,21,,27,,2.3,2.3,*1C
00:01:40.561;A;$SDDPT,,0.00,100.0*4A
00:01:40.615;A;$SDDBT,,f,,M,,F*28
00:01:40.561;B;$GPGSV,3,1,12,07,07,335,48,08,05,283,00,10,19,166,33,13,00,048,00*73
00:01:40.709;B;$GPGSV,3,2,12,15,02,077,00,16,65,279,00,18,41,131,00,20,33,061,34*78
00:01:40.855;B;$GPGSV,3,3,12,21,61,066,38,26,63,200,00,27,40,287,40,29,12,095,36*7F
00:01:41.002;B;$PGRME,9.1,M,,M,9.1,M*00
00:01:41.055;B;$GPGLL,4721.181,N,00832.161,E,101313,A*2C
00:01:41.144;B;$PGRMZ,884,f,2*1E
00:01:41.185;B;$PGRMM,WGS 84*06
00:01:41.222;B;$GPBOD,,T,,M,,*47
00:01:41.273;B;$GPRTE,1,1,c,0*07
00:01:41.463;I;$POSMGYR,-94,-237,398*68
00:01:41.463;I;$POSMACC,2888,15612,-3372*7F
00:01:41.555;A;$SDDPT,,0.00,100.0*4A
00:01:41.611;A;$SDDBT,,f,,M,,F*28
00:01:42.130;B;$GPRMC,101314,A,4721.182,N,00832.161,E,000.0,360.0,110916,000.2,E*7D
00:01:42.279;B;$GPRMB,A,,,,,,,,,,,,V*71
00:01:42.464;I;$POSMGYR,-405,-274,-374*7C
00:01:42.464;I;$POSMACC,2224,15924,-3148*72
00:01:42.333;B;$GPGGA,101315,4721.182,N,00832.161,E,1,03,2.3,269.3,M,48.0,M,,*41
00:01:42.478;B;$GPGSA,A,2,07,,,,,,,,21,,27,,2.3,2.3,*1C
00:01:42.560;A;$SDDPT,,0.00,100.0*4A
00:01:42.612;A;$SDDBT,,f,,M,,F*28
00:01:42.560;B;$GPGSV,3,1,12,07,07,335,49,08,05,283,00,10,19,166,34,13,00,048,00*75
00:01:42.707;B;$GPGSV,3,2,12,15,02,077,00,16,65,279,00,18,41,131,00,20,33,061,33*7F
00:01:42.852;B;$GPGSV,3,3,12,21,61,066,40,26,63,200,00,27,40,287,40,29,12,095,34*72
00:01:42.999;B;$PGRME,9.1,M,,M,9.1,M*00
00:01:43.053;B;$GPGLL,4721.182,N,00832.161,E,101315,A*29
00:01:43.144;B;$PGRMZ,884,f,2*1E
00:01:43.183;B;$PGRMM,WGS 84*06
00:01:43.221;B;$GPBOD,,T,,M,,*47
00:01:43.275;B;$GPRTE,1,1,c,0*07
00:01:43.467;I;$POSMGYR,-371,190,-487*57
00:01:43.467;I;$POSMACC,2216,14608,-2744*78
00:01:43.561;A;$SDDPT,,0.00,100.0*4A
00:01:43.616;A;$SDDBT,,f,,M,,F*28
00:01:44.129;B;$GPRMC,101316,A,4721.182,N,00832.161,E,000.0,360.0,110916,000.2,E*7F
00:01:44.278;B;$GPRMB,A,,,,,,,,,,,,V*71
00:01:44.332;B;$GPGGA,101317,4721.182,N,00832.162,E,1,03,2.3,269.3,M,48.0,M,,*40
00:01:44.469;I;$POSMGYR,-94,167,-462*6C
00:01:44.469;I;$POSMACC,1232,15636,-3784*7C
00:01:44.478;B;$GPGSA,A,2,07,,,,,,,,21,,27,,2.3,2.3,*1C
00:01:44.559;A;$SDDPT,,0.00,100.0*4A
00:01:44.612;A;$SDDBT,,f,,M,,F*28
00:01:44.559;B;$GPGSV,3,1,12,07,07,335,49,08,05,283,00,10,19,166,36,13,00,048,00*77
00:01:44.708;B;$GPGSV,3,2,12,15,02,077,00,16,65,279,00,18,41,131,00,20,33,061,34*78
00:01:44.853;B;$GPGSV,3,3,12,21,61,066,39,26,63,200,00,27,40,287,41,29,12,095,34*7D
00:01:44.999;B;$PGRME,9.1,M,,M,9.1,M*00
00:01:45.054;B;$GPGLL,4721.182,N,00832.162,E,101317,A*28
00:01:45.143;B;$PGRMZ,884,f,2*1E
00:01:45.183;B;$PGRMM,WGS 84*06
00:01:45.222;B;$GPBOD,,T,,M,,*47
00:01:45.277;B;$GPRTE,1,1,c,0*07
00:01:45.468;I;$POSMGYR,-85,308,-469*6C
00:01:45.468;I;$POSMACC,2280,15200,-2496*76
00:01:45.559;A;$SDDPT,,0.00,100.0*4A
00:01:45.615;A;$SDDBT,,f,,M,,F*28
00:01:46.136;B;$GPRMC,101318,A,4721.182,N,00832.162,E,000.0,360.0,110916,000.2,E*72
00:01:46.283;B;$GPRMB,A,,,,,,,,,,,,V*71
00:01:46.470;I;$POSMGYR,-332,-119,-93*4D
00:01:46.470;I;$POSMACC,3808,15552,-2860*78
00:01:46.339;B;$GPGGA,101319,4721.182,N,00832.163,E,1,03,2.3,269.3,M,48.0,M,,*4F
00:01:46.483;B;$GPGSA,A,2,07,,,,,,,,21,,27,,2.3,2.3,*1C
00:01:46.563;A;$SDDPT,,0.00,100.0*4A
00:01:46.617;A;$SDDBT,,f,,M,,F*28
00:01:46.567;B;$GPGSV,3,1,12,07,07,335,49,08,05,283,00,10,19,166,36,13,00,048,00*77
00:01:46.713;B;$GPGSV,3,2,12,15,02,077,00,16,65,279,00,18,41,131,00,20,33,061,37*7B
00:01:46.858;B;$GPGSV,3,3,12,21,61,066,39,26,63,200,00,27,40,287,42,29,12,095,00*79
00:01:47.004;B;$PGRME,9.1,M,,M,9.1,M*00
00:01:47.059;B;$GPGLL,4721.182,N,00832.163,E,101319,A*27
00:01:47.150;B;$PGRMZ,884,f,2*1E
00:01:47.188;B;$PGRMM,WGS 84*06
00:01:47.228;B;$GPBOD,,T,,M,,*47
00:01:47.278;B;$GPRTE,1,1,c,0*07
00:01:47.471;I;$POSMGYR,-464,-186,64*6A
00:01:47.471;I;$POSMACC,2336,16096,-3020*7C
00:01:47.557;A;$SDDPT,,0.00,100.0*4A
00:01:47.614;A;$SDDBT,,f,,M,,F*28
00:01:48.174;B;$GPRMC,101320,A,4721.183,N,00832.163,E,000.0,360.0,110916,000.2,E*79
00:01:48.322;B;$GPRMB,A,,,,,,,,,,,,V*71
00:01:48.473;I;$POSMGYR,-240,364,-716*56
00:01:48.473;I;$POSMACC,2056,15476,-3588*77
00:01:48.377;B;$GPGGA,101321,4721.183,N,00832.163,E,1,03,2.3,269.3,M,48.0,M,,*45
00:01:48.520;B;$GPGSA,A,2,07,,,,,,,,21,,27,,2.3,2.3,*1C
00:01:48.560;A;$SDDPT,,0.00,100.0*4A
00:01:48.615;A;$SDDBT,,f,,M,,F*28
00:01:48.608;B;$GPGSV,3,1,12,07,07,335,48,08,05,283,00,10,19,166,34,13,00,048,00*74
00:01:48.752;B;$GPGSV,3,2,12,15,02,077,00,16,65,279,00,18,41,131,00,20,33,061,40*7B
00:01:48.901;B;$GPGSV,3,3,12,21,61,066,41,26,63,200,00,27,40,287,40,29,12,095,00*74
00:01:49.046;B;$PGRME,9.1,M,,M,9.1,M*00
00:01:49.101;B;$GPGLL,4721.183,N,00832.163,E,101321,A*2D
00:01:49.191;B;$PGRMZ,884,f,2*1E
00:01:49.230;B;$PGRMM,WGS 84*06
00:01:49.279;B;$GPBOD,,T,,M,,*47
00:01:49.378;B;$GPRTE,1,1,c,0*07
00:01:49.476;I;$POSMGYR,-137,358,-1363*6D
00:01:49.476;I;$POSMACC,1056,15824,-3908*7B
00:01:49.556;A;$SDDPT,,0.00,100.0*4A
00:01:49.612;A;$SDDBT,,f,,M,,F*28
00:01:50.179;B;$GPRMC,101323,A,4721.183,N,00832.164,E,000.0,360.0,110916,000.2,E*7D
00:01:50.327;B;$GPRMB,A,,,,,,,,,,,,V*71
00:01:50.478;I;$POSMGYR,-312,-285,-133*72
00:01:50.478;I;$POSMACC,1872,15220,-2540*7A
00:01:50.382;B;$GPGGA,101323,4721.183,N,00832.164,E,1,03,2.3,269.3,M,48.0,M,,*40
00:01:50.522;B;$GPGSA,A,2,07,,,,,,,,21,,27,,2.3,2.3,*1C
00:01:50.559;A;$SDDPT,,0.00,100.0*4A
00:01:50.614;A;$SDDBT,,f,,M,,F*28
00:01:50.612;B;$GPGSV,3,1,12,07,07,335,48,08,05,283,00,10,19,166,33,13,00,048,00*73
00:01:50.757;B;$GPGSV,3,2,12,15,02,077,00,16,65,279,00,18,41,131,00,20,33,061,38*74
00:01:50.904;B;$GPGSV,3,3,12,21,61,066,40,26,63,200,00,27,40,287,39,29,12,095,00*7B
00:01:51.049;B;$PGRME,9.1,M,,M,9.1,M*00
00:01:51.104;B;$GPGLL,4721.183,N,00832.164,E,101323,A*28
00:01:51.196;B;$PGRMZ,884,f,2*1E
00:01:51.233;B;$PGRMM,WGS 84*06
00:01:51.280;B;$GPBOD,,T,,M,,*47
00:01:51.379;B;$GPRTE,1,1,c,0*07
00:01:51.479;I;$POSMGYR,172,939,-1897*4C
00:01:51.479;I;$POSMACC,2020,15896,-1780*7C
00:01:51.561;A;$SDDPT,,0.00,100.0*4A
00:01:51.617;A;$SDDBT,,f,,M,,F*28
00:01:52.180;B;$GPRMC,101325,A,4721.183,N,00832.165,E,000.0,360.0,110916,000.2,E*7A
00:01:52.328;B;$GPRMB,A,,,,,,,,,,,,V*71
00:01:52.481;I;$POSMGYR,-471,-195,-513*74
00:01:52.481;I;$POSMACC,2196,15856,-1816*7C
00:01:52.382;B;$GPGGA,101325,4721.183,N,00832.165,E,1,03,2.3,269.3,M,48.0,M,,*47
00:01:52.522;B;$GPGSA,A,2,07,,,,,,,,21,,27,,2.3,2.3,*1C
00:01:52.558;A;$SDDPT,,0.00,100.0*4A
00:01:52.615;A;$SDDBT,,f,,M,,F*28
00:01:52.613;B;$GPGSV,3,1,12,07,07,335,48,08,05,283,00,10,19,166,33,13,00,048,00*73
00:01:52.758;B;$GPGSV,3,2,12,15,02,077,00,16,65,279,00,18,41,131,00,20,33,061,40*7B
00:01:52.904;B;$GPGSV,3,3,12,21,61,066,41,26,66,195,31,27,40,287,38,29,12,095,00*73
00:01:53.051;B;$PGRME,9.1,M,,M,9.1,M*00
00:01:53.103;B;$GPGLL,4721.183,N,00832.165,E,101325,A*2F
00:01:53.195;B;$PGRMZ,884,f,2*1E
00:01:53.233;B;$PGRMM,WGS 84*06
00:01:53.283;B;$GPBOD,,T,,M,,*47
00:01:53.382;B;$GPRTE,1,1,c,0*07
00:01:53.482;I;$POSMGYR,-379,-319,155*56
00:01:53.482;I;$POSMACC,1356,15792,-2240*7C
00:01:53.559;A;$SDDPT,,0.00,100.0*4A
00:01:53.615;A;$SDDBT,,f,,M,,F*28
00:01:54.183;B;$GPRMC,101327,A,4721.183,N,00832.165,E,000.0,360.0,110916,000.2,E*78
00:01:54.331;B;$GPRMB,A,,,,,,,,,,,,V*71
00:01:54.483;I;$POSMGYR,-462,41,-88*54
00:01:54.483;I;$POSMACC,1732,15944,-3032*79
00:01:54.386;B;$GPGGA,101327,4721.183,N,00832.165,E,1,03,2.3,269.3,M,48.0,M,,*45
00:01:54.555;A;$SDDPT,,0.00,100.0*4A
00:01:54.525;B;$GPGSA,A,2,07,,,,,,,,21,,27,,2.3,2.3,*1C
00:01:54.614;A;$SDDBT,,f,,M,,F*28
00:01:54.614;B;$GPGSV,3,1,12,07,07,335,48,08,05,283,00,10,19,166,31,13,00,048,00*71
00:01:54.759;B;$GPGSV,3,2,12,15,02,077,00,16,65,279,00,18,41,131,00,20,33,061,39*75
00:01:54.905;B;$GPGSV,3,3,12,21,61,066,40,26,66,195,32,27,40,287,39,29,12,095,00*70
00:01:55.052;B;$PGRME,9.1,M,,M,9.1,M*00
00:01:55.106;B;$GPGLL,4721.183,N,00832.165,E,101327,A*2D
00:01:55.195;B;$PGRMZ,884,f,2*1E
00:01:55.236;B;$PGRMM,WGS 84*06
00:01:55.283;B;$GPBOD,,T,,M,,*47
00:01:55.383;B;$GPRTE,1,1,c,0*07
00:01:55.485;I;$POSMGYR,-130,854,-538*54
00:01:55.485;I;$POSMACC,608,15892,-3816*44
00:01:55.558;A;$SDDPT,,0.00,100.0*4A
00:01:55.614;A;$SDDBT,,f,,M,,F*28
00:01:56.186;B;$GPRMC,101329,A,4721.183,N,00832.165,E,000.0,360.0,110916,000.2,E*76
00:01:56.333;B;$GPRMB,A,,,,,,,,,,,,V*71
00:01:56.486;I;$POSMGYR,-243,196,-457*5C
00:01:56.486;I;$POSMACC,1784,15888,-3352*70
00:01:56.387;B;$GPGGA,101329,4721.183,N,00832.164,E,1,03,2.3,269.3,M,48.0,M,,*4A
00:01:56.528;B;$GPGSA,A,2,07,,,,,,,,21,,27,,2.3,2.3,*1C
00:01:56.560;A;$SDDPT,,0.00,100.0*4A
00:01:56.619;A;$SDDBT,,f,,M,,F*28
00:01:56.617;B;$GPGSV,3,1,12,07,07,335,48,08,05,283,00,10,19,166,31,13,00,048,00*71
00:01:56.762;B;$GPGSV,3,2,12,15,02,077,00,16,65,279,00,18,41,131,00,20,33,061,38*74
00:01:56.910;B;$GPGSV,3,3,12,21,61,066,39,26,66,195,32,27,41,289,39,29,12,095,00*71
00:01:57.055;B;$PGRME,9.1,M,,M,9.1,M*00
00:01:57.109;B;$GPGLL,4721.183,N,00832.164,E,101329,A*22
00:01:57.198;B;$PGRMZ,884,f,2*1E
00:01:57.239;B;$PGRMM,WGS 84*06
00:01:57.286;B;$GPBOD,,T,,M,,*47
00:01:57.386;B;$GPRTE,1,1,c,0*07
00:01:57.488;I;$POSMGYR,-345,10,-15*56
00:01:57.488;I;$POSMACC,1356,15932,-2920*75
00:01:57.557;A;$SDDPT,,0.00,100.0*4A
00:01:57.612;A;$SDDBT,,f,,M,,F*28
00:01:58.187;B;$GPRMC,101331,A,4721.183,N,00832.164,E,000.0,360.0,110916,000.2,E*7E
00:01:58.336;B;$GPRMB,A,,,,,,,,,,,,V*71
00:01:58.489;I;$POSMGYR,-276,-16,-286*44
00:01:58.489;I;$POSMACC,1780,15776,-2676*78
00:01:58.387;B;$GPGGA,101331,4721.183,N,00832.164,E,1,03,2.3,269.3,M,48.0,M,,*43
00:01:58.559;A;$SDDPT,,0.00,100.0*4A
00:01:58.529;B;$GPGSA,A,2,07,,,,,,,,21,,27,,2.3,2.3,*1C
00:01:58.617;A;$SDDBT,,f,,M,,F*28
00:01:58.617;B;$GPGSV,3,1,12,07,07,335,48,08,05,283,00,10,19,166,31,13,00,048,00*71
00:01:58.762;B;$GPGSV,3,2,12,15,02,077,00,16,65,279,00,18,41,131,00,20,33,061,36*7A
00:01:58.909;B;$GPGSV,3,3,12,21,61,066,37,26,66,195,32,27,41,289,38,29,12,095,00*7E
00:01:59.056;B;$PGRME,9.1,M,,M,9.1,M*00
00:01:59.110;B;$GPGLL,4721.183,N,00832.164,E,101331,A*2B
00:01:59.201;B;$PGRMZ,884,f,2*1E
00:01:59.239;B;$PGRMM,WGS 84*06
00:01:59.286;B;$GPBOD,,T,,M,,*47
00:01:59.389;B;$GPRTE,1,1,c,0*07
00:01:59.490;I;$POSMGYR,-444,3,134*7D
00:01:59.490;I;$POSMACC,1904,16864,-2372*74
00:01:59.557;A;$SDDPT,,0.00,100.0*4A
00:01:59.611;A;$SDDBT,,f,,M,,F*28
00:02:00.188;B;$GPRMC,101333,A,4721.183,N,00832.164,E,000.0,360.0,110916,000.2,E*7C
00:02:00.336;B;$GPRMB,A,,,,,,,,,,,,V*71
00:02:00.494;I;$POSMGYR,-286,9,-401*51
00:02:00.494;I;$POSMACC,2344,15328,-2624*7F
00:02:00.390;B;$GPGGA,101333,4721.183,N,00832.164,E,1,03,2.3,269.3,M,48.0,M,,*41
00:02:00.559;A;$SDDPT,,0.00,100.0*4A
00:02:00.532;B;$GPGSA,A,2,07,,,,,,,,21,,27,,2.3,2.3,*1C
00:02:00.613;A;$SDDBT,,f,,M,,F*28
00:02:00.619;B;$GPGSV,3,1,12,07,07,335,49,08,05,283,00,10,19,166,32,13,00,048,00*73
00:02:00.768;B;$GPGSV,3,2,12,15,02,077,00,16,65,279,00,18,41,131,00,20,33,061,34*78
00:02:00.911;B;$GPGSV,3,3,12,21,61,066,36,26,66,195,33,27,41,289,38,29,12,095,00*7E
00:02:01.058;B;$PGRME,9.1,M,,M,9.1,M*00
00:02:01.114;B;$GPGLL,4721.183,N,00832.164,E,101333,A*29
00:02:01.203;B;$PGRMZ,884,f,2*1E
00:02:01.241;B;$PGRMM,WGS 84*06
00:02:01.291;B;$GPBOD,,T,,M,,*47
00:02:01.391;B;$GPRTE,1,1,c,0*07
00:02:01.497;I;$POSMGYR,-416,-397,403*58
00:02:01.497;I;$POSMACC,1212,16376,-3072*72
00:02:01.561;A;$SDDPT,,0.00,100.0*4A
00:02:01.616;A;$SDDBT,,f,,M,,F*28
00:02:02.190;B;$GPRMC,101335,A,4721.183,N,00832.164,E,000.0,360.0,110916,000.2,E*7A
00:02:02.339;B;$GPRMB,A,,,,,,,,,,,,V*71
00:02:02.498;I;$POSMGYR,-446,-85,109*62
00:02:02.498;I;$POSMACC,2644,15948,-1908*74
00:02:02.392;B;$GPGGA,101335,4721.183,N,00832.164,E,1,03,2.3,269.3,M,48.0,M,,*47
00:02:02.557;A;$SDDPT,,0.00,100.0*4A
00:02:02.533;B;$GPGSA,A,2,07,,,,,,,,21,,27,,2.3,2.3,*1C
00:02:02.611;A;$SDDBT,,f,,M,,F*28
00:02:02.621;B;$GPGSV,3,1,12,07,07,335,49,08,05,283,00,10,19,166,32,13,00,048,00*73
00:02:02.768;B;$GPGSV,3,2,12,15,02,077,00,16,65,279,00,18,41,131,00,20,33,061,34*78
00:02:02.914;B;$GPGSV,3,3,12,21,61,066,34,26,66,195,33,27,41,289,38,29,12,095,00*7C
00:02:03.060;B;$PGRME,9.1,M,,M,9.1,M*00
00:02:03.114;B;$GPGLL,4721.183,N,00832.164,E,101335,A*2F
00:02:03.203;B;$PGRMZ,884,f,2*1E
00:02:03.244;B;$PGRMM,WGS 84*06
00:02:03.291;B;$GPBOD,,T,,M,,*47
00:02:03.393;B;$GPRTE,1,1,c,0*07
00:02:03.499;I;$POSMGYR,-364,-69,83*54
00:02:03.499;I;$POSMACC,1976,15560,-3080*74
00:02:03.560;A;$SDDPT,,0.00,100.0*4A
00:02:03.615;A;$SDDBT,,f,,M,,F*28
00:02:04.192;B;$GPRMC,101337,A,4721.183,N,00832.164,E,000.0,360.0,110916,000.2,E*78
00:02:04.341;B;$GPRMB,A,,,,,,,,,,,,V*71
00:02:04.503;I;$POSMGYR,-360,-80,33*5C
00:02:04.503;I;$POSMACC,1860,16228,-3596*78
00:02:04.394;B;$GPGGA,101337,4721.183,N,00832.164,E,1,03,2.3,269.3,M,48.0,M,,*45
00:02:04.555;A;$SDDPT,,0.00,100.0*4A
00:02:04.535;B;$GPGSA,A,2,07,,,,,,,,21,,27,,2.3,2.3,*1C
00:02:04.611;A;$SDDBT,,f,,M,,F*28
00:02:04.625;B;$GPGSV,3,1,12,07,07,335,49,08,05,283,00,10,19,166,33,13,00,048,00*72
00:02:04.771;B;$GPGSV,3,2,12,15,02,077,00,16,65,279,00,18,41,131,00,20,33,061,32*7E
00:02:04.916;B;$GPGSV,3,3,12,21,61,066,34,26,66,195,33,27,41,289,37,29,10,092,00*76
00:02:05.063;B;$PGRME,9.1,M,,M,9.1,M*00
00:02:05.117;B;$GPGLL,4721.183,N,00832.164,E,101337,A*2D
00:02:05.208;B;$PGRMZ,884,f,2*1E
00:02:05.246;B;$PGRMM,WGS 84*06
00:02:05.293;B;$GPBOD,,T,,M,,*47
00:02:05.393;B;$GPRTE,1,1,c,0*07
00:02:05.503;I;$POSMGYR,-263,-127,-183*75
00:02:05.503;I;$POSMACC,2208,15504,-3064*7D
00:02:05.558;A;$SDDPT,,0.00,100.0*4A
00:02:05.613;A;$SDDBT,,f,,M,,F*28
00:02:06.193;B;$GPRMC,101339,A,4721.183,N,00832.164,E,000.0,360.0,110916,000.2,E*76
00:02:06.342;B;$GPRMB,A,,,,,,,,,,,,V*71
00:02:06.504;I;$POSMGYR,-365,-55,-141*48
00:02:06.504;I;$POSMACC,2816,16304,-2120*7D
00:02:06.395;B;$GPGGA,101339,4721.183,N,00832.164,E,1,03,2.3,269.3,M,48.0,M,,*4B
00:02:06.560;A;$SDDPT,,0.00,100.0*4A
00:02:06.536;B;$GPGSA,A,2,07,,,,,,,,21,,27,,2.3,2.3,*1C
00:02:06.616;A;$SDDBT,,f,,M,,F*28
00:02:06.625;B;$GPGSV,3,1,12,07,07,335,49,08,05,283,00,10,19,166,34,13,00,048,00*75
00:02:06.771;B;$GPGSV,3,2,12,15,02,077,00,16,65,279,00,18,41,131,00,20,33,061,32*7E
00:02:06.917;B;$GPGSV,3,3,12,21,61,066,32,26,66,195,34,27,41,289,36,29,10,092,00*76
00:02:07.064;B;$PGRME,9.1,M,,M,9.1,M*00
00:02:07.117;B;$GPGLL,4721.183,N,00832.164,E,101339,A*23
00:02:07.208;B;$PGRMZ,884,f,2*1E
00:02:07.247;B;$PGRMM,WGS 84*06
00:02:07.294;B;$GPBOD,,T,,M,,*47
00:02:07.395;B;$GPRTE,1,1,c,0*07
00:02:07.506;I;$POSMGYR,-199,38,-319*60
00:02:07.506;I;$POSMACC,2104,15400,-2888*7C
00:02:07.557;A;$SDDPT,,0.00,100.0*4A
00:02:07.610;A;$SDDBT,,f,,M,,F*28
00:02:08.195;B;$GPRMC,101341,A,4721.183,N,00832.164,E,000.0,360.0,110916,000.2,E*79
00:02:08.344;B;$GPRMB,A,,,,,,,,,,,,V*71
00:02:08.507;I;$POSMGYR,-475,-19,-44*72
00:02:08.507;I;$POSMACC,2128,15680,-2376*72
00:02:08.398;B;$GPGGA,101341,4721.183,N,00832.164,E,1,03,2.3,269.3,M,48.0,M,,*44
00:02:08.560;A;$SDDPT,,0.00,100.0*4A
00:02:08.544;B;$GPGSA,A,2,07,,,,,,,,21,,27,,2.3,2.3,*1C
00:02:08.614;A;$SDDBT,,f,,M,,F*28
00:02:08.630;B;$GPGSV,3,1,12,07,07,335,49,08,05,283,00,10,19,166,33,13,00,048,00*72
00:02:08.778;B;$GPGSV,3,2,12,15,02,077,00,16,65,279,00,18,41,131,00,20,33,061,30*7C
00:02:08.924;B;$GPGSV,3,3,12,21,61,066,31,26,66,195,34,27,41,289,34,29,10,092,00*77
00:02:09.071;B;$PGRME,9.1,M,,M,9.1,M*00
00:02:09.124;B;$GPGLL,4721.183,N,00832.164,E,101341,A*2C
00:02:09.215;B;$PGRMZ,884,f,2*1E
00:02:09.255;B;$PGRMM,WGS 84*06
00:02:09.296;B;$GPBOD,,T,,M,,*47
00:02:09.397;B;$GPRTE,1,1,c,0*07
00:02:09.508;I;$POSMGYR,-382,-137,-122*71
00:02:09.508;I;$POSMACC,2104,15508,-2460*7F
00:02:09.555;A;$SDDPT,,0.00,100.0*4A
00:02:09.609;A;$SDDBT,,f,,M,,F*28
00:02:10.198;B;$GPRMC,101343,A,4721.183,N,00832.164,E,000.0,360.0,110916,000.2,E*7B
00:02:10.347;B;$GPRMB,A,,,,,,,,,,,,V*71
00:02:10.510;I;$POSMGYR,-299,-185,51*6B
00:02:10.510;I;$POSMACC,1488,16468,-1972*74
00:02:10.401;B;$GPGGA,101343,4721.183,N,00832.164,E,1,03,2.3,269.3,M,48.0,M,,*46
00:02:10.558;A;$SDDPT,,0.00,100.0*4A
00:02:10.543;B;$GPGSA,A,2,07,,,,,,,,21,,27,,2.3,2.3,*1C
00:02:10.612;A;$SDDBT,,f,,M,,F*28
00:02:10.629;B;$GPGSV,3,1,12,07,07,335,48,08,05,283,00,10,19,166,34,13,00,048,00*74
00:02:10.777;B;$GPGSV,3,2,12,15,02,077,00,16,65,279,00,18,41,131,00,20,33,061,32*7E
00:02:10.922;B;$GPGSV,3,3,12,21,61,066,33,26,66,195,34,27,41,289,33,29,10,092,00*72
00:02:11.068;B;$PGRME,9.1,M,,M,9.1,M*00
00:02:11.123;B;$GPGLL,4721.183,N,00832.164,E,101343,A*2E
00:02:11.213;B;$PGRMZ,884,f,2*1E
00:02:11.252;B;$PGRMM,WGS 84*06
00:02:11.299;B;$GPBOD,,T,,M,,*47
00:02:11.400;B;$GPRTE,1,1,c,0*07
00:02:11.511;I;$POSMGYR,-316,230,-448*5C
00:02:11.511;I;$POSMACC,1912,15304,-2800*73
00:02:11.560;A;$SDDPT,,0.00,100.0*4A
00:02:11.616;A;$SDDBT,,f,,M,,F*28
00:02:12.199;B;$GPRMC,101345,A,4721.183,N,00832.164,E,000.0,360.0,110916,000.2,E*7D
00:02:12.347;B;$GPRMB,A,,,,,,,,,,,,V*71
00:02:12.513;I;$POSMGYR,-361,-195,-147*77
00:02:12.513;I;$POSMACC,2192,15796,-3060*70
00:02:12.401;B;$GPGGA,101345,4721.183,N,00832.164,E,1,03,2.3,269.3,M,48.0,M,,*40
00:02:12.556;A;$SDDPT,,0.00,100.0*4A
00:02:12.541;B;$GPGSA,A,2,07,,,,,,,,21,,27,,2.3,2.3,*1C
00:02:12.611;A;$SDDBT,,f,,M,,F*28
00:02:12.629;B;$GPGSV,3,1,12,07,07,335,46,08,05,283,00,10,19,166,34,13,00,048,00*7A
00:02:12.776;B;$GPGSV,3,2,12,15,02,077,00,16,65,279,00,18,41,131,00,20,33,061,32*7E
00:02:12.923;B;$GPGSV,3,3,12,21,61,066,33,26,66,195,33,27,41,289,34,29,10,092,30*71
00:02:13.069;B;$PGRME,9.1,M,,M,9.1,M*00
00:02:13.125;B;$GPGLL,4721.183,N,00832.164,E,101345,A*28
00:02:13.214;B;$PGRMZ,884,f,2*1E
00:02:13.255;B;$PGRMM,WGS 84*06
00:02:13.304;B;$GPBOD,,T,,M,,*47
00:02:13.405;B;$GPRTE,1,1,c,0*07
00:02:13.514;I;$POSMGYR,-122,28,-462*6A
00:02:13.514;I;$POSMACC,1924,16036,-3136*7A
00:02:13.559;A;$SDDPT,,0.00,100.0*4A
00:02:13.615;A;$SDDBT,,f,,M,,F*28
00:02:14.202;B;$GPRMC,101347,A,4721.183,N,00832.164,E,000.0,360.0,110916,000.2,E*7F
00:02:14.350;B;$GPRMB,A,,,,,,,,,,,,V*71
00:02:14.516;I;$POSMGYR,-227,126,-667*54
00:02:14.516;I;$POSMACC,1252,16088,-2956*7A
00:02:14.404;B;$GPGGA,101347,4721.183,N,00832.164,E,1,03,2.3,269.3,M,48.0,M,,*42
00:02:14.555;A;$SDDPT,,0.00,100.0*4A
00:02:14.544;B;$GPGSA,A,2,07,,,,,,,,21,,27,,2.3,2.3,*1C
00:02:14.611;A;$SDDBT,,f,,M,,F*28
00:02:14.632;B;$GPGSV,3,1,12,07,07,335,46,08,05,283,00,10,19,166,35,13,00,048,00*7B
00:02:14.777;B;$GPGSV,3,2,12,15,02,077,00,16,65,279,00,18,41,131,00,20,33,061,31*7D
00:02:14.926;B;$GPGSV,3,3,12,21,61,066,31,26,66,195,34,27,41,289,34,29,10,092,00*77
00:02:15.073;B;$PGRME,9.1,M,,M,9.1,M*00
00:02:15.126;B;$GPGLL,4721.183,N,00832.164,E,101347,A*2A
00:02:15.217;B;$PGRMZ,884,f,2*1E
00:02:15.255;B;$PGRMM,WGS 84*06
00:02:15.305;B;$GPBOD,,T,,M,,*47
00:02:15.404;B;$GPRTE,1,1,c,0*07
00:02:15.517;I;$POSMGYR,-204,45,-298*65
00:02:15.517;I;$POSMACC,1848,15336,-3788*72
00:02:15.558;A;$SDDPT,,0.00,100.0*4A
00:02:15.613;A;$SDDBT,,f,,M,,F*28
00:02:16.205;B;$GPRMC,101349,A,4721.183,N,00832.164,E,000.0,360.0,110916,000.2,E*71
00:02:16.350;B;$GPRMB,A,,,,,,,,,,,,V*71
00:02:16.520;I;$POSMGYR,-550,-409,235*58
00:02:16.520;I;$POSMACC,1544,16156,-3612*76
00:02:16.408;B;$GPGGA,101349,4721.183,N,00832.164,E,1,03,2.3,269.3,M,48.0,M,,*4C
00:02:16.560;A;$SDDPT,,0.00,100.0*4A
00:02:16.547;B;$GPGSA,A,2,07,,,,,,,,21,,27,,2.3,2.3,*1C
00:02:16.616;A;$SDDBT,,f,,M,,F*28
00:02:16.633;B;$GPGSV,3,1,12,07,07,335,46,08,05,283,00,10,19,166,36,13,00,048,00*78
00:02:16.780;B;$GPGSV,3,2,12,15,02,077,00,16,65,279,32,18,41,131,00,20,33,061,31*7C
00:02:16.927;B;$GPGSV,3,3,12,21,61,066,31,26,66,195,33,27,41,289,34,29,10,092,00*70
00:02:17.074;B;$PGRME,9.1,M,,M,9.1,M*00
00:02:17.127;B;$GPGLL,4721.183,N,00832.164,E,101349,A*24
00:02:17.217;B;$PGRMZ,884,f,2*1E
00:02:17.257;B;$PGRMM,WGS 84*06
00:02:17.305;B;$GPBOD,,T,,M,,*47
00:02:17.405;B;$GPRTE,1,1,c,0*07
00:02:17.522;I;$POSMGYR,-309,-96,-179*46
00:02:17.522;I;$POSMACC,2444,15792,-3204*7A
00:02:17.555;A;$SDDPT,,0.00,100.0*4A
00:02:17.612;A;$SDDBT,,f,,M,,F*28
00:02:18.205;B;$GPRMC,101351,A,4721.183,N,00832.164,E,000.0,360.0,110916,000.2,E*78
00:02:18.354;B;$GPRMB,A,,,,,,,,,,,,V*71
00:02:18.525;I;$POSMGYR,-238,-366,370*5F
00:02:18.525;I;$POSMACC,1784,16104,-3260*7E
00:02:18.406;B;$GPGGA,101351,4721.183,N,00832.164,E,1,03,2.3,269.3,M,48.0,M,,*45
00:02:18.558;A;$SDDPT,,0.00,100.0*4A
00:02:18.548;B;$GPGSA,A,2,07,,,,,,,,21,,27,,2.3,2.3,*1C
00:02:18.614;A;$SDDBT,,f,,M,,F*28
00:02:18.636;B;$GPGSV,3,1,12,07,07,335,46,08,05,283,00,10,19,166,36,13,00,048,00*78
00:02:18.781;B;$GPGSV,3,2,12,15,02,077,00,16,65,279,30,18,41,131,00,20,33,061,31*7E
00:02:18.929;B;$GPGSV,3,3,12,21,61,066,31,26,66,195,34,27,41,289,33,29,10,092,00*70
00:02:19.075;B;$PGRME,9.1,M,,M,9.1,M*00
00:02:19.128;B;$GPGLL,4721.183,N,00832.164,E,101351,A*2D
00:02:19.219;B;$PGRMZ,884,f,2*1E
00:02:19.258;B;$PGRMM,WGS 84*06
00:02:19.305;B;$GPBOD,,T,,M,,*47
00:02:19.406;B;$GPRTE,1,1,c,0*07
00:02:19.527;I;$POSMGYR,-141,15,-221*60
00:02:19.527;I;$POSMACC,1604,16248,-3044*78
00:02:19.554;A;$SDDPT,,0.00,100.0*4A
00:02:19.611;A;$SDDBT,,f,,M,,F*28
00:02:20.207;B;$GPRMC,101353,A,4721.183,N,00832.164,E,000.0,360.0,110916,000.2,E*7A
00:02:20.355;B;$GPRMB,A,,,,,,,,,,,,V*71
00:02:20.528;I;$POSMGYR,-107,-170,996*57
00:02:20.528;I;$POSMACC,2088,16728,-6220*7F
00:02:20.409;B;$GPGGA,101353,4721.183,N,00832.164,E,1,03,2.3,269.3,M,48.0,M,,*47
00:02:20.557;A;$SDDPT,,0.00,100.0*4A
00:02:20.550;B;$GPGSA,A,2,07,,,,,,,,21,,27,,2.3,2.3,*1C
00:02:20.613;A;$SDDBT,,f,,M,,F*28
00:02:20.639;B;$GPGSV,3,1,12,07,07,335,45,08,05,283,00,10,19,166,36,13,00,048,00*7B
00:02:20.785;B;$GPGSV,3,2,12,15,02,077,00,16,65,279,31,18,41,131,00,20,33,061,32*7C
00:02:20.932;B;$GPGSV,3,3,12,21,61,066,31,26,66,195,33,27,41,289,34,29,10,092,31*72
00:02:21.077;B;$PGRME,9.1,M,,M,9.1,M*00
00:02:21.131;B;$GPGLL,4721.183,N,00832.164,E,101353,A*2F
00:02:21.222;B;$PGRMZ,884,f,2*1E
00:02:21.261;B;$PGRMM,WGS 84*06
00:02:21.308;B;$GPBOD,,T,,M,,*47
00:02:21.410;B;$GPRTE,1,1,c,0*07
00:02:21.530;I;$POSMGYR,-459,-1264,917*67
00:02:21.530;I;$POSMACC,768,15916,-3096*4E
00:02:21.559;A;$SDDPT,,0.00,100.0*4A
00:02:21.617;A;$SDDBT,,f,,M,,F*28
00:02:22.208;B;$GPRMC,101355,A,4721.183,N,00832.164,E,000.0,360.0,110916,000.2,E*7C
00:02:22.356;B;$GPRMB,A,,,,,,,,,,,,V*71
00:02:22.533;I;$POSMGYR,-167,-505,-119*75
00:02:22.533;I;$POSMACC,-1092,16628,-1312*5C
00:02:22.410;B;$GPGGA,101355,4721.183,N,00832.164,E,1,03,2.3,269.3,M,48.0,M,,*41
00:02:22.556;A;$SDDPT,,0.00,100.0*4A
00:02:22.564;B;$GPGSA,A,2,,,,,,,,,,,,,2.3,2.3,*1D
00:02:22.612;A;$SDDBT,,f,,M,,F*28
00:02:22.640;B;$GPGSV,3,1,12,07,07,335,44,08,05,283,00,10,19,166,33,13,00,048,00*7F
00:02:22.786;B;$GPGSV,3,2,12,15,02,077,00,16,65,279,31,18,41,131,00,20,33,061,32*7C
00:02:22.932;B;$GPGSV,3,3,12,21,61,066,31,26,66,195,31,27,41,289,33,29,10,092,30*76
00:02:23.078;B;$PGRME,9.1,M,,M,9.1,M*00
00:02:23.132;B;$GPGLL,4721.183,N,00832.164,E,101355,A*29
00:02:23.409;B;$PGRMZ,884,f,2*1E
00:02:23.535;I;$POSMGYR,-889,-661,1783*64
00:02:23.535;I;$POSMACC,3460,16472,-300*45
00:02:23.511;B;$PGRMM,WGS 84*06
00:02:23.559;A;$SDDPT,,0.00,100.0*4A
00:02:23.612;B;$GPBOD,,T,,M,,*47
00:02:23.614;A;$SDDBT,,f,,M,,F*28
00:02:23.714;B;$GPRTE,1,1,c,0*07
00:02:24.536;I;$POSMGYR,224,-417,-162*52
00:02:24.536;I;$POSMACC,208,16480,-440*70
00:02:24.556;A;$SDDPT,,0.00,100.0*4A
00:02:24.609;A;$SDDBT,,f,,M,,F*28
00:02:24.513;B;$GPRMC,101357,A,4721.183,N,00832.164,E,000.0,360.0,110916,000.2,E*7E
00:02:24.660;B;$GPRMB,A,,,,,,,,,,,,V*71
00:02:24.716;B;$GPGGA,101357,4721.183,N,00832.164,E,1,00,2.3,269.3,M,48.0,M,,*40
00:02:24.856;B;$GPGSA,A,2,,,,,,,,,,,,,2.3,2.3,*1D
00:02:24.933;B;$GPGSV,3,1,12,07,07,335,44,08,05,283,00,10,19,166,33,13,00,048,00*7F
00:02:25.077;B;$GPGSV,3,2,12,15,02,077,00,16,65,279,32,18,41,131,00,20,33,061,32*7F
00:02:25.223;B;$GPGSV,3,3,12,21,61,066,35,26,66,195,31,27,41,289,33,29,10,092,30*72
00:02:25.370;B;$PGRME,9.1,M,,M,9.1,M*00
00:02:25.426;B;$GPGLL,4721.183,N,00832.164,E,101358,A*24
00:02:25.539;I;$POSMGYR,-94,-1294,1974*69
00:02:25.539;I;$POSMACC,588,16932,-3044*48
00:02:25.515;B;$PGRMZ,884,f,2*1E
00:02:25.554;B;$PGRMM,WGS 84*06
00:02:25.557;A;$SDDPT,,0.00,100.0*4A
00:02:25.611;B;$GPBOD,,T,,M,,*47
00:02:25.611;A;$SDDBT,,f,,M,,F*28
00:02:25.713;B;$GPRTE,1,1,c,0*07
00:02:26.542;I;$POSMGYR,-1460,-635,1230*52
00:02:26.542;I;$POSMACC,3712,15748,-2288*79
00:02:26.561;A;$SDDPT,,0.00,100.0*4A
00:02:26.615;A;$SDDBT,,f,,M,,F*28
00:02:26.513;B;$GPRMC,101359,A,4721.183,N,00832.164,E,000.0,360.0,110916,000.2,E*70
00:02:26.662;B;$GPRMB,A,,,,,,,,,,,,V*71
00:02:26.715;B;$GPGGA,101359,4721.183,N,00832.164,E,1,00,2.3,269.3,M,48.0,M,,*4E
00:02:26.856;B;$GPGSA,A,2,,,,,,,,,,,,,2.3,2.3,*1D
00:02:26.930;B;$GPGSV,3,1,12,07,07,335,43,08,05,283,00,10,19,166,33,13,00,048,00*78
00:02:27.076;B;$GPGSV,3,2,12,15,02,077,00,16,65,279,32,18,41,131,00,20,33,061,34*79
00:02:27.222;B;$GPGSV,3,3,12,21,61,066,40,26,66,195,32,27,41,289,32,29,10,092,30*72
00:02:27.371;B;$PGRME,9.1,M,,M,9.1,M*00
00:02:27.425;B;$GPGLL,4721.183,N,00832.164,E,101400,A*2E
00:02:27.545;I;$POSMGYR,-481,356,-1108*64
00:02:27.545;I;$POSMACC,3924,15048,-2408*7B
00:02:27.514;B;$PGRMZ,884,f,2*1E
00:02:27.559;B;$PGRMM,WGS 84*06
00:02:27.559;A;$SDDPT,,0.00,100.0*4A
00:02:27.614;B;$GPBOD,,T,,M,,*47
00:02:27.610;A;$SDDBT,,f,,M,,F*28
00:02:27.716;B;$GPRTE,1,1,c,0*07
00:02:28.545;I;$POSMGYR,-617,607,-535*53
00:02:28.545;I;$POSMACC,2364,16748,-112*4C
00:02:28.557;A;$SDDPT,,0.00,100.0*4A
00:02:28.614;A;$SDDBT,,f,,M,,F*28
00:02:28.514;B;$GPRMC,101401,A,4721.184,N,00832.164,E,000.0,360.0,110916,000.2,E*7D
00:02:28.663;B;$GPRMB,A,,,,,,,,,,,,V*71
00:02:28.716;B;$GPGGA,101401,4721.184,N,00832.164,E,1,00,2.3,269.3,M,48.0,M,,*43
00:02:28.859;B;$GPGSA,A,2,,,,,,,,,,,,,2.3,2.3,*1D
00:02:28.933;B;$GPGSV,3,1,12,07,07,335,43,08,05,283,00,10,19,166,34,13,00,048,00*7F
00:02:29.080;B;$GPGSV,3,2,12,15,02,077,00,16,65,279,32,18,41,131,00,20,33,061,36*7B
00:02:29.225;B;$GPGSV,3,3,12,21,61,066,43,26,66,195,31,27,41,289,32,29,10,092,30*72
00:02:29.371;B;$PGRME,9.1,M,,M,9.1,M*00
00:02:29.426;B;$GPGLL,4721.184,N,00832.164,E,101402,A*2B
00:02:29.548;I;$POSMGYR,-875,-306,-248*7D
00:02:29.548;I;$POSMACC,2444,16784,-3684*72
00:02:29.517;B;$PGRMZ,884,f,2*1E
00:02:29.562;B;$PGRMM,WGS 84*06
00:02:29.559;A;$SDDPT,,0.00,100.0*4A
00:02:29.609;A;$SDDBT,,f,,M,,F*28
00:02:29.615;B;$GPBOD,,T,,M,,*47
00:02:29.716;B;$GPRTE,1,1,c,0*07
00:02:30.548;I;$POSMGYR,-145,-390,504*5A
00:02:30.548;I;$POSMACC,4280,15436,-2232*7B
00:02:30.558;A;$SDDPT,,0.00,100.0*4A
00:02:30.612;A;$SDDBT,,f,,M,,F*28
00:02:30.517;B;$GPRMC,101403,A,4721.184,N,00832.165,E,000.0,360.0,110916,000.2,E*7E
00:02:30.664;B;$GPRMB,A,,,,,,,,,,,,V*71
00:02:30.721;B;$GPGGA,101403,4721.184,N,00832.165,E,1,00,2.3,269.3,M,48.0,M,,*40
00:02:30.858;B;$GPGSA,A,2,07,,,,,,,,21,,27,,2.3,2.3,*1C
00:02:30.947;B;$GPGSV,3,1,12,07,07,335,44,08,05,283,30,10,19,166,35,13,00,048,00*7A
00:02:31.094;B;$GPGSV,3,2,12,15,02,077,00,16,65,279,37,18,41,131,00,20,33,061,36*7E
00:02:31.239;B;$GPGSV,3,3,12,21,61,066,41,26,66,195,31,27,41,289,31,29,10,092,30*73
00:02:31.386;B;$PGRME,9.1,M,,M,9.1,M*00
00:02:31.440;B;$GPGLL,4721.184,N,00832.165,E,101404,A*2C
00:02:31.550;I;$POSMGYR,3643,1079,-1318*4A
00:02:31.550;I;$POSMACC,-1376,14920,-6560*54
00:02:31.531;B;$PGRMZ,884,f,2*1E
00:02:31.570;B;$PGRMM,WGS 84*06
00:02:31.562;A;$SDDPT,,0.00,100.0*4A
00:02:31.614;A;$SDDBT,,f,,M,,F*28
00:02:31.619;B;$GPBOD,,T,,M,,*47
00:02:31.717;B;$GPRTE,1,1,c,0*07
00:02:32.551;I;$POSMGYR,2149,1817,-48*41
00:02:32.551;I;$POSMACC,1156,13856,-7696*75
00:02:32.561;A;$SDDPT,,0.00,100.0*4A
00:02:32.609;A;$SDDBT,,f,,M,,F*28
00:02:32.523;B;$GPRMC,101405,A,4721.184,N,00832.165,E,000.0,360.0,110916,000.2,E*78
00:02:32.673;B;$GPRMB,A,,,,,,,,,,,,V*71
00:02:32.726;B;$GPGGA,101405,4721.184,N,00832.165,E,1,03,2.3,269.3,M,48.0,M,,*45
00:02:32.866;B;$GPGSA,A,2,07,,,,,,,,21,,27,,2.3,2.3,*1C
00:02:32.952;B;$GPGSV,3,1,12,07,07,335,42,08,05,283,30,10,19,166,35,13,00,048,00*7C
00:02:33.099;B;$GPGSV,3,2,12,15,02,077,00,16,65,279,37,18,41,131,00,20,33,061,34*7C
00:02:33.247;B;$GPGSV,3,3,12,21,61,066,40,26,66,195,32,27,41,289,31,29,10,092,30*71
00:02:33.394;B;$PGRME,9.1,M,,M,9.1,M*00
00:02:33.447;B;$GPGLL,4721.184,N,00832.165,E,101406,A*2E
00:02:33.552;I;$POSMGYR,-324,614,-37*63
00:02:33.552;I;$POSMACC,2288,13424,-8408*75
00:02:33.537;B;$PGRMZ,884,f,2*1E
00:02:33.563;A;$SDDPT,,0.00,100.0*4A
00:02:33.577;B;$PGRMM,WGS 84*06
00:02:33.615;A;$SDDBT,,f,,M,,F*28
00:02:33.620;B;$GPBOD,,T,,M,,*47
00:02:33.720;B;$GPRTE,1,1,c,0*07
00:02:34.555;I;$POSMGYR,-1173,-975,529*60
00:02:34.555;I;$POSMACC,4896,12836,-8000*74
00:02:34.555;A;$SDDPT,,0.00,100.0*4A
00:02:34.608;A;$SDDBT,,f,,M,,F*28
00:02:34.521;B;$GPRMC,101407,A,4721.185,N,00832.166,E,000.0,360.0,110916,000.2,E*78
00:02:34.669;B;$GPRMB,A,,,,,,,,,,,,V*71
00:02:34.723;B;$GPGGA,101407,4721.185,N,00832.166,E,1,03,2.3,269.3,M,48.0,M,,*45
00:02:34.862;B;$GPGSA,A,2,07,,,,,,,,21,,27,,2.3,2.3,*1C
