$SDDBT,,f,,M,,F*28
$POSMGYR,-328,-131,-37*42
$POSMACC,112,10372,14156*5E
$SDDBT,,f,,M,,F*28
$SDDBT,,f,,M,,F*28
$POSMGYR,-340,-107,-78*42
$POSMACC,168,10428,13928*5D
$SDDBT,,f,,M,,F*28
$POSMGYR,-289,-122,-40*4A
$POSMACC,48,10432,13788*61
$SDDBT,,f,,M,,F*28
$GPRMC,101226,V,,,,,,,110916,,*39
$POSMGYR,-329,-114,-48*4C
$POSMACC,228,10424,13860*5B
$SDDBT,,f,,M,,F*28
$POSMGYR,-342,-133,-52*4F
$POSMACC,88,10388,13852*63
$SDDBT,,f,,M,,F*28
$GPRMC,101228,V,,,,,,,110916,,*37
$POSMGYR,-335,-111,-69*47
$POSMACC,4,10528,13860*5A
$SDDBT,,f,,M,,F*28
$POSMGYR,-327,-118,-54*43
$POSMACC,104,10408,13868*50
$SDDBT,,f,,M,,F*28
$GPRMC,101230,V,,,,,,,110916,,*3E
$POSMGYR,-320,-111,-71*4A
$POSMACC,116,10452,13960*55
$SDDBT,,f,,M,,F*28
$POSMGYR,-328,-110,-61*42
$POSMACC,76,10456,13916*67
$SDDBT,,f,,M,,F*28
$GPRMC,101232,V,,,,,,,110916,,*3C
$POSMGYR,290,1427,-2011*75
$POSMACC,512,11396,14508*5E
$SDDBT,,f,,M,,F*28
$POSMGYR,-321,-128,-39*4D
$POSMACC,-140,10456,13908*71
$SDDBT,,f,,M,,F*28
$GPRMC,101234,V,,,,,,,110916,,*3A
$POSMGYR,-338,-127,-42*46
$POSMACC,-72,10420,14028*4C
$SDDBT,,f,,M,,F*28
$POSMGYR,-319,-100,-57*44
$POSMACC,124,10560,13908*5A
$SDDBT,,f,,M,,F*28
$GPRMC,101236,V,,,,,,,110916,,*38
$POSMGYR,-332,-95,-51*76
$POSMACC,-16,10488,13836*4C
$SDDBT,,f,,M,,F*28
$POSMGYR,8218,-1872,-3778*65
$POSMACC,-512,10636,14804*7C
$SDDBT,,f,,M,,F*28
$GPRMC,101238,V,,,,,,,110916,,*36
$POSMGYR,-475,-350,187*5F
$POSMACC,452,10140,14100*5F
$SDDBT,,f,,M,,F*28
$POSMGYR,27873,-32768,-11660*50
$POSMACC,-9936,18904,3044*73
$SDDBT,,f,,M,,F*28
$GPRMC,101240,V,,,,,,,110916,,*39
$POSMGYR,-1198,-8967,19533*5D
$POSMACC,-740,20048,7308*40
$SDDBT,,f,,M,,F*28
$POSMGYR,3685,-7631,-245*59
$POSMACC,2736,15076,5436*5D
$SDDBT,,f,,M,,F*28
$GPRMC,101242,V,,,,,,,110916,,*3B
$POSMGYR,-3635,4696,-4026*6F
$POSMACC,2448,13428,3324*5C
$SDDBT,,f,,M,,F*28
$POSMGYR,187,1247,-126*47
$POSMACC,-688,16252,2216*42
$SDDBT,,f,,M,,F*28
$GPRMC,101244,V,,,,,,,110916,,*3D
$POSMGYR,-174,-86,-78*7F
$POSMACC,2572,16564,684*64
$SDDBT,,f,,M,,F*28
$POSMGYR,-376,-387,-471*70
$POSMACC,2640,16544,1400*5B
$SDDBT,,f,,M,,F*28
$GPRMC,101246,V,,,,,,,110916,,*3F
$POSMGYR,1801,981,-912*4E
$POSMACC,932,15956,992*58
$SDDBT,,f,,M,,F*28
$POSMGYR,-400,-728,449*51
$POSMACC,1712,15984,-1932*7C
$SDDBT,,f,,M,,F*28
$GPRMC,101248,V,,,,,,,110916,,*31
$POSMGYR,-228,252,-184*51
$POSMACC,736,16324,-2256*42
$SDDBT,,f,,M,,F*28
$POSMGYR,-326,-247,-474*7D
$POSMACC,856,15920,-2140*42
$SDDBT,,f,,M,,F*28
$GPRMC,101250,V,,,,,,,110916,,*38
$POSMGYR,-231,963,711*77
$POSMACC,-836,15996,-1712*66
$SDDBT,,f,,M,,F*28
$POSMGYR,-348,15,-501*6E
$POSMACC,536,16116,-2452*41
$SDDBT,,f,,M,,F*28
$GPRMC,101252,V,,,,,,,110916,,*3A
$POSMGYR,-332,7,101*79
$POSMACC,328,16092,-2480*4A
$SDDBT,,f,,M,,F*28
$POSMGYR,-568,-277,17*6E
$POSMACC,500,16384,-1580*40
$SDDBT,,f,,M,,F*28
$GPRMC,101254,V,,,,,,,110916,,*3C
$POSMGYR,-393,446,-1800*67
$POSMACC,564,17292,-1220*48
$SDDBT,,f,,M,,F*28
$POSMGYR,-274,-1163,155*64
$POSMACC,1156,16264,-824*4B
$SDDBT,,f,,M,,F*28
$GPRMC,101256,V,,,,,,,110916,,*3E
$POSMGYR,467,295,-912*7D
$POSMACC,1344,15792,-2744*7E
$SDDBT,,f,,M,,F*28
$POSMGYR,-406,29,94*78
$POSMACC,988,17528,-2476*46
$SDDBT,,f,,M,,F*28
$GPRMC,101258,V,,,,,,,110916,,*30
$POSMGYR,-671,-1163,1056*56
$POSMACC,940,16096,-2720*43
$SDDBT,,f,,M,,F*28
$POSMGYR,-477,-87,346*6B
$POSMACC,952,16340,-2472*4C
$SDDBT,,f,,M,,F*28
$GPRMC,101300,V,,,,,,,110916,,*3C
$POSMGYR,-547,65,114*4D
$POSMACC,1940,16020,-1956*73
$SDDBT,,f,,M,,F*28
$POSMGYR,364,82,-317*42
$POSMACC,2560,16852,-2668*72
$SDDBT,,f,,M,,F*28
$GPRMC,101302,V,,,,,,,110916,,*3E
$POSMGYR,-316,9,-645*5B
$POSMACC,2316,15932,-2728*74
$SDDBT,,f,,M,,F*28
$POSMGYR,-349,194,206*7A
$POSMACC,2640,15908,-2808*76
$SDDBT,,f,,M,,F*28
$GPRMC,101304,V,,,,,,,110916,,*38
$POSMGYR,-485,-266,240*5C
$POSMACC,2508,15796,-3160*76
$SDDBT,,f,,M,,F*28
$POSMGYR,-482,563,-1093*64
$POSMACC,2596,15832,-2668*7E
$SDDBT,,f,,M,,F*28
$GPRMC,101306,V,,,,,,,110916,,*3A
$POSMGYR,-170,-105,-366*7D
$POSMACC,984,15744,-3272*43
$SDDBT,,f,,M,,F*28
$POSMGYR,-1464,-1385,991*58
$POSMACC,3304,16516,-1768*78
$SDDBT,,f,,M,,F*28
$GPRMC,101308,V,,,,,,,110916,,*34
$POSMGYR,-168,-96,-212*4D
$POSMACC,1412,16304,-2508*78
$SDDBT,,f,,M,,F*28
$POSMGYR,-247,-28,-382*4E
$POSMACC,220,16132,-2248*4A
$SDDBT,,f,,M,,F*28
$GPRMC,101310,V,,,,,,,110916,,*3D
$POSMGYR,-406,-726,-436*7C
$POSMACC,1464,15716,-3248*7F
$SDDBT,,f,,M,,F*28
$POSMGYR,-391,-243,-24*44
$POSMACC,2148,16444,-3252*7B
$SDDBT,,f,,M,,F*28
$GPRMC,101312,V,,,,,,,110916,,*3F
$POSMGYR,-413,-79,400*6D
$POSMACC,2136,15776,-2416*74
$SDDBT,,f,,M,,F*28
$POSMGYR,-568,-151,246*5F
$POSMACC,2600,15928,-2200*72
$SDDBT,,f,,M,,F*28
$GPRMC,101314,V,,,,,,,110916,,*39
$POSMGYR,-91,-123,132*69
$POSMACC,2612,16072,-2500*73
$SDDBT,,f,,M,,F*28
$POSMGYR,90,-626,193*4C
$POSMACC,536,16484,-2384*43
$SDDBT,,f,,M,,F*28
$GPRMC,101316,V,,,,,,,110916,,*3B
$POSMGYR,214,835,-1050*41
$POSMACC,1312,16200,-2376*75
$SDDBT,,f,,M,,F*28
$POSMGYR,-916,10,1109*7A
$POSMACC,676,15908,-1924*4D
$SDDBT,,f,,M,,F*28
$GPRMC,101318,V,,,,,,,110916,,*35
$POSMGYR,-274,-96,509*63
$POSMACC,1100,15416,-1948*72
$SDDBT,,f,,M,,F*28
$POSMGYR,-368,46,265*42
$POSMACC,3536,15676,-3128*79
$SDDBT,,f,,M,,F*28
$GPRMC,101304,A,4721.185,N,00832.165,E,000.0,360.0,110916,000.2,E*7F
$POSMGYR,-850,-1273,402*6D
$POSMACC,1296,16048,-2680*7A
$SDDBT,,f,,M,,F*28
$POSMGYR,-693,23,-81*55
$POSMACC,1720,16300,-2684*79
$SDDBT,,f,,M,,F*28
$GPRMC,101307,A,4721.184,N,00832.165,E,000.0,360.0,110916,000.2,E*7D
$POSMGYR,-414,0,-271*54
$POSMACC,2404,16264,-2708*79
$SDDBT,,f,,M,,F*28
$POSMGYR,-91,-275,-131*47
$POSMACC,1300,15608,-2752*7B
$SDDBT,,f,,M,,F*28
$GPRMC,101308,A,4721.182,N,00832.164,E,000.0,360.0,110916,000.2,E*75
$POSMGYR,200,1177,-1895*7B
$POSMACC,2372,15016,-1348*78
$SDDBT,,f,,M,,F*28
$POSMGYR,-531,-528,755*5E
$POSMACC,2480,15824,-2360*72
$SDDBT,,f,,M,,F*28
$GPRMC,101310,A,4721.181,N,00832.163,E,000.0,360.0,110916,000.2,E*78
$POSMGYR,-203,258,110*72
$POSMACC,2840,16108,-2348*7C
$SDDBT,,f,,M,,F*28
$POSMGYR,-448,-736,-530*70
$POSMACC,1900,16424,-2596*74
$SDDBT,,f,,M,,F*28
$GPRMC,101312,A,4721.182,N,00832.162,E,000.0,360.0,110916,000.2,E*78
$POSMGYR,-397,61,-686*63
$POSMACC,2168,15856,-3000*70
$SDDBT,,f,,M,,F*28
$POSMGYR,-94,-237,398*68
$POSMACC,2888,15612,-3372*7F
$SDDBT,,f,,M,,F*28
$GPRMC,101314,A,4721.182,N,00832.161,E,000.0,360.0,110916,000.2,E*7D
$POSMGYR,-405,-274,-374*7C
$POSMACC,2224,15924,-3148*72
$SDDBT,,f,,M,,F*28
$POSMGYR,-371,190,-487*57
$POSMACC,2216,14608,-2744*78
$SDDBT,,f,,M,,F*28
$GPRMC,101316,A,4721.182,N,00832.161,E,000.0,360.0,110916,000.2,E*7F
$POSMGYR,-94,167,-462*6C
$POSMACC,1232,15636,-3784*7C
$SDDBT,,f,,M,,F*28
$POSMGYR,-85,308,-469*6C
$POSMACC,2280,15200,-2496*76
$SDDBT,,f,,M,,F*28
$GPRMC,101318,A,4721.182,N,00832.162,E,000.0,360.0,110916,000.2,E*72
$POSMGYR,-332,-119,-93*4D
$POSMACC,3808,15552,-2860*78
$SDDBT,,f,,M,,F*28
$POSMGYR,-464,-186,64*6A
$POSMACC,2336,16096,-3020*7C
$SDDBT,,f,,M,,F*28
$GPRMC,101320,A,4721.183,N,00832.163,E,000.0,360.0,110916,000.2,E*79
$POSMGYR,-240,364,-716*56
$POSMACC,2056,15476,-3588*77
$SDDBT,,f,,M,,F*28
$POSMGYR,-137,358,-1363*6D
$POSMACC,1056,15824,-3908*7B
$SDDBT,,f,,M,,F*28
$GPRMC,101323,A,4721.183,N,00832.164,E,000.0,360.0,110916,000.2,E*7D
$POSMGYR,-312,-285,-133*72
$POSMACC,1872,15220,-2540*7A
$SDDBT,,f,,M,,F*28
$POSMGYR,172,939,-1897*4C
$POSMACC,2020,15896,-1780*7C
$SDDBT,,f,,M,,F*28
$GPRMC,101325,A,4721.183,N,00832.165,E,000.0,360.0,110916,000.2,E*7A
$POSMGYR,-471,-195,-513*74
$POSMACC,2196,15856,-1816*7C
$SDDBT,,f,,M,,F*28
$POSMGYR,-379,-319,155*56
$POSMACC,1356,15792,-2240*7C
$SDDBT,,f,,M,,F*28
$GPRMC,101327,A,4721.183,N,00832.165,E,000.0,360.0,110916,000.2,E*78
$POSMGYR,-462,41,-88*54
$POSMACC,1732,15944,-3032*79
$SDDBT,,f,,M,,F*28
$POSMGYR,-130,854,-538*54
$POSMACC,608,15892,-3816*44
$SDDBT,,f,,M,,F*28
$GPRMC,101329,A,4721.183,N,00832.165,E,000.0,360.0,110916,000.2,E*76
$POSMGYR,-243,196,-457*5C
$POSMACC,1784,15888,-3352*70
$SDDBT,,f,,M,,F*28
$POSMGYR,-345,10,-15*56
$POSMACC,1356,15932,-2920*75
$SDDBT,,f,,M,,F*28
$GPRMC,101331,A,4721.183,N,00832.164,E,000.0,360.0,110916,000.2,E*7E
$POSMGYR,-276,-16,-286*44
$POSMACC,1780,15776,-2676*78
$SDDBT,,f,,M,,F*28
$POSMGYR,-444,3,134*7D
$POSMACC,1904,16864,-2372*74
$SDDBT,,f,,M,,F*28
$GPRMC,101333,A,4721.183,N,00832.164,E,000.0,360.0,110916,000.2,E*7C
$POSMGYR,-286,9,-401*51
$POSMACC,2344,15328,-2624*7F
$SDDBT,,f,,M,,F*28
$POSMGYR,-416,-397,403*58
$POSMACC,1212,16376,-3072*72
$SDDBT,,f,,M,,F*28
$GPRMC,101335,A,4721.183,N,00832.164,E,000.0,360.0,110916,000.2,E*7A
$POSMGYR,-446,-85,109*62
$POSMACC,2644,15948,-1908*74
$SDDBT,,f,,M,,F*28
$POSMGYR,-364,-69,83*54
$POSMACC,1976,15560,-3080*74
$SDDBT,,f,,M,,F*28
$GPRMC,101337,A,4721.183,N,00832.164,E,000.0,360.0,110916,000.2,E*78
$POSMGYR,-360,-80,33*5C
$POSMACC,1860,16228,-3596*78
$SDDBT,,f,,M,,F*28
$POSMGYR,-263,-127,-183*75
$POSMACC,2208,15504,-3064*7D
$SDDBT,,f,,M,,F*28
$GPRMC,101339,A,4721.183,N,00832.164,E,000.0,360.0,110916,000.2,E*76
$POSMGYR,-365,-55,-141*48
$POSMACC,2816,16304,-2120*7D
$SDDBT,,f,,M,,F*28
$POSMGYR,-199,38,-319*60
$POSMACC,2104,15400,-2888*7C
$SDDBT,,f,,M,,F*28
$GPRMC,101341,A,4721.183,N,00832.164,E,000.0,360.0,110916,000.2,E*79
$POSMGYR,-475,-19,-44*72
$POSMACC,2128,15680,-2376*72
$SDDBT,,f,,M,,F*28
$POSMGYR,-382,-137,-122*71
$POSMACC,2104,15508,-2460*7F
$SDDBT,,f,,M,,F*28
$GPRMC,101343,A,4721.183,N,00832.164,E,000.0,360.0,110916,000.2,E*7B
$POSMGYR,-299,-185,51*6B
$POSMACC,1488,16468,-1972*74
$SDDBT,,f,,M,,F*28
$POSMGYR,-316,230,-448*5C
$POSMACC,1912,15304,-2800*73
$SDDBT,,f,,M,,F*28
$GPRMC,101345,A,4721.183,N,00832.164,E,000.0,360.0,110916,000.2,E*7D
$POSMGYR,-361,-195,-147*77
$POSMACC,2192,15796,-3060*70
$SDDBT,,f,,M,,F*28
$POSMGYR,-122,28,-462*6A
$POSMACC,1924,16036,-3136*7A
$SDDBT,,f,,M,,F*28
$GPRMC,101347,A,4721.183,N,00832.164,E,000.0,360.0,110916,000.2,E*7F
$POSMGYR,-227,126,-667*54
$POSMACC,1252,16088,-2956*7A
$SDDBT,,f,,M,,F*28
$POSMGYR,-204,45,-298*65
$POSMACC,1848,15336,-3788*72
$SDDBT,,f,,M,,F*28
$GPRMC,101349,A,4721.183,N,00832.164,E,000.0,360.0,110916,000.2,E*71
$POSMGYR,-550,-409,235*58
$POSMACC,1544,16156,-3612*76
$SDDBT,,f,,M,,F*28
$POSMGYR,-309,-96,-179*46
$POSMACC,2444,15792,-3204*7A
$SDDBT,,f,,M,,F*28
$GPRMC,101351,A,4721.183,N,00832.164,E,000.0,360.0,110916,000.2,E*78
$POSMGYR,-238,-366,370*5F
$POSMACC,1784,16104,-3260*7E
$SDDBT,,f,,M,,F*28
$POSMGYR,-141,15,-221*60
$POSMACC,1604,16248,-3044*78
$SDDBT,,f,,M,,F*28
$GPRMC,101353,A,4721.183,N,00832.164,E,000.0,360.0,110916,000.2,E*7A
$POSMGYR,-107,-170,996*57
$POSMACC,2088,16728,-6220*7F
$SDDBT,,f,,M,,F*28
$POSMGYR,-459,-1264,917*67
$POSMACC,768,15916,-3096*4E
$SDDBT,,f,,M,,F*28
$GPRMC,101355,A,4721.183,N,00832.164,E,000.0,360.0,110916,000.2,E*7C
$POSMGYR,-167,-505,-119*75
$POSMACC,-1092,16628,-1312*5C
$SDDBT,,f,,M,,F*28
$POSMGYR,-889,-661,1783*64
$POSMACC,3460,16472,-300*45
$SDDBT,,f,,M,,F*28
$GPRMC,101357,A,4721.183,N,00832.164,E,000.0,360.0,110916,000.2,E*7E
$POSMGYR,224,-417,-162*52
$POSMACC,208,16480,-440*70
$SDDBT,,f,,M,,F*28
$POSMGYR,-94,-1294,1974*69
$POSMACC,588,16932,-3044*48
$SDDBT,,f,,M,,F*28
$GPRMC,101359,A,4721.183,N,00832.164,E,000.0,360.0,110916,000.2,E*70
$POSMGYR,-1460,-635,1230*52
$POSMACC,3712,15748,-2288*79
$SDDBT,,f,,M,,F*28
$POSMGYR,-481,356,-1108*64
$POSMACC,3924,15048,-2408*7B
$SDDBT,,f,,M,,F*28
$GPRMC,101401,A,4721.184,N,00832.164,E,000.0,360.0,110916,000.2,E*7D
$POSMGYR,-617,607,-535*53
$POSMACC,2364,16748,-112*4C
$SDDBT,,f,,M,,F*28
$POSMGYR,-875,-306,-248*7D
$POSMACC,2444,16784,-3684*72
$SDDBT,,f,,M,,F*28
$GPRMC,101403,A,4721.184,N,00832.165,E,000.0,360.0,110916,000.2,E*7E
$POSMGYR,-145,-390,504*5A
$POSMACC,4280,15436,-2232*7B
$SDDBT,,f,,M,,F*28
$POSMGYR,3643,1079,-1318*4A
$POSMACC,-1376,14920,-6560*54
$SDDBT,,f,,M,,F*28
$GPRMC,101405,A,4721.184,N,00832.165,E,000.0,360.0,110916,000.2,E*78
$POSMGYR,2149,1817,-48*41
$POSMACC,1156,13856,-7696*75
$SDDBT,,f,,M,,F*28
$POSMGYR,-324,614,-37*63
$POSMACC,2288,13424,-8408*75
$SDDBT,,f,,M,,F*28
$GPRMC,101407,A,4721.185,N,00832.166,E,000.0,360.0,110916,000.2,E*78
$POSMGYR,-1173,-975,529*60
$POSMACC,4896,12836,-8000*74
$SDDBT,,f,,M,,F*28
$POSMGYR,5730,1792,577*58
$POSMACC,2796,10228,-11456*45
$SDDBT,,f,,M,,F*28
$GPRMC,101409,A,4721.185,N,00832.166,E,000.0,360.0,110916,000.2,E*76
$POSMGYR,-2018,-897,-81*78
$POSMACC,-164,5704,-12880*6A
$SDDBT,,f,,M,,F*28
$POSMGYR,-2779,-3484,-189*7C
$POSMACC,1444,3772,-14420*76
$SDDBT,,f,,M,,F*28
$GPRMC,101411,A,4721.185,N,00832.166,E,000.0,360.0,110916,000.2,E*7F
$POSMGYR,-1282,-966,-709*42
$POSMACC,604,8180,-13560*43
$SDDBT,,f,,M,,F*28
$POSMGYR,-934,554,-856*50
$POSMACC,1660,8288,-12768*70
$SDDBT,,f,,M,,F*28
$GPRMC,101413,A,4721.185,N,00832.166,E,000.0,360.0,110916,000.2,E*7D
$POSMGYR,-357,-142,332*55
$POSMACC,1044,9468,-12792*7C
$SDDBT,,f,,M,,F*28
$POSMGYR,-364,-426,-355*7E
$POSMACC,832,9208,-12676*4F
$SDDBT,,f,,M,,F*28
$GPRMC,101415,A,4721.185,N,00832.166,E,000.0,360.0,110916,000.2,E*7B
$POSMGYR,-919,1131,-1533*56
$POSMACC,-192,9912,-8572*5D
$SDDBT,,f,,M,,F*28
$POSMGYR,-1065,-216,-406*49
$POSMACC,1204,9384,-12396*7F
$SDDBT,,f,,M,,F*28
$GPRMC,101417,A,4721.185,N,00832.166,E,000.0,360.0,110916,000.2,E*79
$POSMGYR,-447,-247,261*52
$POSMACC,380,8416,-13128*48
$SDDBT,,f,,M,,F*28
$POSMGYR,-338,67,-32*59
$POSMACC,836,8588,-13196*4D
$SDDBT,,f,,M,,F*28
$GPRMC,101419,A,4721.185,N,00832.166,E,000.0,360.0,110916,000.2,E*77
$POSMGYR,-317,-215,161*54
$POSMACC,268,8548,-13112*4C
$SDDBT,,f,,M,,F*28
$POSMGYR,-407,-62,-169*45
$POSMACC,576,8208,-13296*48
$SDDBT,,f,,M,,F*28
$GPRMC,101421,A,4721.186,N,00832.166,E,000.0,360.0,110916,000.2,E*7F
$POSMGYR,-396,-242,-32*45
$POSMACC,376,8496,-13308*49
$SDDBT,,f,,M,,F*28
$POSMGYR,-121,-58,-541*43
$POSMACC,300,8304,-13324*4A
$SDDBT,,f,,M,,F*28
$GPRMC,101423,A,4721.186,N,00832.166,E,000.0,360.0,110916,000.2,E*7D
$POSMGYR,-384,-137,-719*79
$POSMACC,456,8456,-13204*4D
$SDDBT,,f,,M,,F*28
$POSMGYR,-182,10,-259*65
$POSMACC,432,8180,-13400*43
$SDDBT,,f,,M,,F*28
$GPRMC,101425,A,4721.186,N,00832.166,E,000.0,360.0,110916,000.2,E*7B
$POSMGYR,-309,-117,-361*75
$POSMACC,400,9416,-12832*45
$SDDBT,,f,,M,,F*28
$POSMGYR,-353,-66,-94*74
$POSMACC,504,8376,-13396*44
$SDDBT,,f,,M,,F*28
$GPRMC,101427,A,4721.183,N,00832.164,E,000.0,360.0,110916,000.2,E*7E
$POSMGYR,-500,-180,-30*43
$POSMACC,320,8336,-13432*49
$SDDBT,,f,,M,,F*28
$POSMGYR,-362,-76,-261*4F
$POSMACC,-24,8140,-13272*52
$SDDBT,,f,,M,,F*28
$GPRMC,101429,A,4721.181,N,00832.162,E,000.0,360.0,110916,000.2,E*74
$POSMGYR,-334,-132,-236*7F
$POSMACC,432,8356,-13400*4A
$SDDBT,,f,,M,,F*28
$POSMGYR,-429,-164,51*69
$POSMACC,324,8360,-13344*48
$SDDBT,,f,,M,,F*28
$GPRMC,101431,A,4721.179,N,00832.159,E,000.0,360.0,110916,000.2,E*72
$POSMGYR,-153,-453,-236*7E
$POSMACC,-32,8704,-13100*55
$SDDBT,,f,,M,,F*28
$POSMGYR,-383,-303,210*5A
$POSMACC,-664,8368,-13520*68
$SDDBT,,f,,M,,F*28
$GPRMC,101433,A,4721.183,N,00832.159,E,000.0,360.0,110916,000.2,E*75
$POSMGYR,-202,-139,125*5C
$POSMACC,-556,8308,-13348*64
$SDDBT,,f,,M,,F*28
$POSMGYR,-499,-153,-64*4D
$POSMACC,-680,8276,-13340*6C
$SDDBT,,f,,M,,F*28
$GPRMC,101435,A,4721.249,N,00832.142,E,000.0,360.0,110916,000.2,E*7C
$POSMGYR,-332,78,-40*58
$POSMACC,-180,8332,-13532*69
$SDDBT,,f,,M,,F*28
$POSMGYR,-452,-308,322*5A
$POSMACC,-712,8548,-13192*61
$SDDBT,,f,,M,,F*28
$GPRMC,101437,A,4721.251,N,00832.144,E,000.0,360.0,110916,000.2,E*71
$POSMGYR,-81,-189,201*6B
$POSMACC,-640,8244,-13308*6D
$SDDBT,,f,,M,,F*28
$POSMGYR,-325,-264,98*64
$POSMACC,-360,8740,-13192*6A
$SDDBT,,f,,M,,F*28
$GPRMC,101439,A,4721.250,N,00832.144,E,000.0,360.0,110916,000.2,E*7E
$POSMGYR,-336,-170,75*63
$POSMACC,-492,8484,-13056*62
$SDDBT,,f,,M,,F*28
$SDDBT,,f,,M,,F*28
$POSMGYR,-543,-66,-118*46
$POSMACC,-648,8468,-13472*67
$GPRMC,101441,A,4721.250,N,00832.144,E,000.0,360.0,110916,000.2,E*71
$SDDBT,,f,,M,,F*28
$POSMGYR,-49,62,141*71
$POSMACC,248,6840,-14308*4B
$SDDBT,,f,,M,,F*28
$POSMGYR,-2157,2366,-1140*65
$POSMACC,1556,6656,-14324*75
$GPRMC,101443,A,4721.250,N,00832.144,E,000.0,360.0,110916,000.2,E*73
$SDDBT,,f,,M,,F*28
$POSMGYR,-2058,-150,-385*49
$POSMACC,836,13168,-8688*4F
$SDDBT,,f,,M,,F*28
$POSMGYR,-140,-699,-755*78
$POSMACC,-2020,12016,-10220*69
$GPRMC,101445,A,4721.251,N,00832.146,E,000.0,360.0,110916,000.2,E*76
$SDDBT,,f,,M,,F*28
$POSMGYR,-757,-1374,12*56
$POSMACC,-828,11492,-10728*5D
$SDDBT,,f,,M,,F*28
$POSMGYR,-322,-513,-848*7C
$POSMACC,-1148,11600,-10692*6A
$GPRMC,101447,A,4721.251,N,00832.146,E,000.0,360.0,110916,000.2,E*74
$SDDBT,,f,,M,,F*28
$POSMGYR,-332,-190,-384*79
$POSMACC,-1104,11608,-10912*6D
$SDDBT,,f,,M,,F*28
$POSMGYR,-746,-153,17*65
$POSMACC,-1944,11976,-10056*6E
$GPRMC,101449,A,4721.252,N,00832.146,E,000.0,360.0,110916,000.2,E*79
$SDDBT,,f,,M,,F*28
$POSMGYR,-29,-279,-31*79
$POSMACC,-2180,11360,-10408*6F
$SDDBT,,f,,M,,F*28
$POSMGYR,-572,217,-420*53
$POSMACC,-1884,11720,-10456*6A
$GPRMC,101451,A,4721.252,N,00832.146,E,000.0,360.0,110916,000.2,E*70
$SDDBT,,f,,M,,F*28
$POSMGYR,-539,59,-764*67
$POSMACC,-1532,10820,-11312*62
$SDDBT,,f,,M,,F*28
$POSMGYR,428,2797,925*6A
$POSMACC,272,8944,-13352*41
$GPRMC,101453,A,4721.252,N,00832.146,E,000.0,360.0,110916,000.2,E*72
$SDDBT,,f,,M,,F*28
$POSMGYR,4334,-1822,652*74
$POSMACC,-2216,5296,-17732*53
$SDDBT,,f,,M,,F*28
$POSMGYR,-647,-2642,2382*5D
$POSMACC,-5024,5780,-15084*5D
$GPRMC,101455,A,4721.252,N,00832.146,E,000.0,360.0,110916,000.2,E*74
$SDDBT,,f,,M,,F*28
$POSMGYR,-2188,-1135,1081*6C
$POSMACC,-2884,6248,-12688*57
$SDDBT,,f,,M,,F*28
$POSMGYR,3188,30,4100*65
$POSMACC,-4668,7508,-17040*58
$GPRMC,101457,A,4721.252,N,00832.147,E,000.0,360.0,110916,000.2,E*77
$SDDBT,,f,,M,,F*28
$POSMGYR,6673,-3459,5668*4E
$POSMACC,-3788,7124,-14876*54
$SDDBT,,f,,M,,F*28
$POSMGYR,2814,4219,1343*65
$POSMACC,-3920,4108,-13876*52
$GPRMC,101459,A,4721.252,N,00832.148,E,000.0,360.0,110916,000.2,E*76
$SDDBT,,f,,M,,F*28
$POSMGYR,6689,-4211,6597*46
$POSMACC,-2912,3272,-14124*52
$SDDBT,,f,,M,,F*28
$POSMGYR,-1692,867,-708*6B
$POSMACC,-696,4596,-14944*67
$GPRMC,101501,A,4721.252,N,00832.148,E,000.0,360.0,110916,000.2,E*7A
$SDDBT,,f,,M,,F*28
$POSMGYR,-2085,1036,36*42
$POSMACC,-1660,3584,-14984*57
$SDDBT,,f,,M,,F*28
$POSMGYR,-761,-27,942*6B
$POSMACC,-408,4012,-15152*65
$GPRMC,101503,A,4721.252,N,00832.149,E,000.0,360.0,110916,000.2,E*79
$SDDBT,,f,,M,,F*28
$POSMGYR,-591,-26,-811*4D
$POSMACC,-496,4064,-15504*64
$SDDBT,,f,,M,,F*28
$POSMGYR,-538,-846,-1434*4A
$POSMACC,-1672,4304,-15188*58
$GPRMC,101505,A,4721.255,N,00832.150,E,000.0,360.0,110916,000.2,E*70
$SDDBT,,f,,M,,F*28
$POSMGYR,-505,1442,-12493*6F
$POSMACC,-2288,3764,-12256*58
$SDDBT,,f,,M,,F*28
$POSMGYR,1807,-1175,2481*4F
$POSMACC,-2916,3808,-10724*53
$GPRMC,101507,A,4721.254,N,00832.149,E,000.0,360.0,110916,000.2,E*7B
$SDDBT,,f,,M,,F*28
$POSMGYR,-2526,2059,-3997*68
$POSMACC,-2956,2468,-13316*5A
$SDDBT,,f,,M,,F*28
$POSMGYR,-3279,3082,-4832*6A
$POSMACC,-1872,2596,-17756*5A
$GPRMC,101509,A,4721.254,N,00832.149,E,000.0,360.0,110916,000.2,E*75
$SDDBT,,f,,M,,F*28
$POSMGYR,-1196,-548,-1058*76
$POSMACC,-2748,3524,-15128*5A
$SDDBT,,f,,M,,F*28
$POSMGYR,1404,2707,2336*66
$POSMACC,-3840,3984,-14020*52
$GPRMC,101511,A,4721.253,N,00832.149,E,000.0,360.0,110916,000.2,E*7B
$SDDBT,,f,,M,,F*28
$POSMGYR,-3562,-4670,2894*61
$POSMACC,-3600,3784,-13940*5E
$SDDBT,,f,,M,,F*28
$POSMGYR,1467,-966,3404*72
$POSMACC,-1772,5512,-13916*50
$GPRMC,101513,A,4721.253,N,00832.150,E,000.0,360.0,110916,000.2,E*71
$SDDBT,,f,,M,,F*28
$POSMGYR,-3388,-3408,6989*60
$POSMACC,-3000,3768,-15736*53
$SDDBT,,f,,M,,F*28
$POSMGYR,1885,-4579,3624*44
$POSMACC,-3648,4176,-14088*54
$GPRMC,101515,A,4721.253,N,00832.151,E,000.0,360.0,110916,000.2,E*76
$SDDBT,,f,,M,,F*28
$POSMGYR,374,-2130,-1237*56
$POSMACC,-3584,4020,-13532*56
$SDDBT,,f,,M,,F*28
$POSMGYR,446,-1491,-1872*56
$POSMACC,-3476,3856,-15176*56
$GPRMC,101517,A,4721.253,N,00832.151,E,000.0,360.0,110916,000.2,E*74
$SDDBT,,f,,M,,F*28
$POSMGYR,-365,-95,579*66
$POSMACC,-3924,4108,-14184*55
$SDDBT,,f,,M,,F*28
$POSMGYR,-2390,818,-349*66
$POSMACC,-3124,3268,-15504*52
$GPRMC,101519,A,4721.253,N,00832.152,E,001.0,360.0,110916,000.2,E*78
$SDDBT,,f,,M,,F*28
$POSMGYR,-1158,-262,-4561*71
$POSMACC,-2508,3120,-14184*5B
$SDDBT,,f,,M,,F*28
$POSMGYR,-6452,4611,-1942*68
$POSMACC,-2600,2324,-13984*58
$GPRMC,101521,A,4721.253,N,00832.152,E,001.0,360.0,110916,000.2,E*73
$SDDBT,,f,,M,,F*28
$POSMGYR,-5996,716,-947*68
$POSMACC,-1896,2328,-15380*5E
$SDDBT,,f,,M,,F*28
$POSMGYR,-4289,-2445,2037*67
$POSMACC,-1344,3412,-18292*5A
$GPRMC,101523,A,4721.253,N,00832.153,E,001.0,360.0,110916,000.2,E*70
$SDDBT,,f,,M,,F*28
$POSMGYR,-3371,-1973,2038*62
$POSMACC,-2728,3544,-16852*5D
$SDDBT,,f,,M,,F*28
$POSMGYR,3683,464,-3132*77
$POSMACC,-3856,4144,-14340*53
$GPRMC,101525,A,4721.253,N,00832.153,E,001.0,360.0,110916,000.2,E*76
$SDDBT,,f,,M,,F*28
$POSMGYR,-123,805,-160*5B
$POSMACC,-2456,3584,-12600*56
$SDDBT,,f,,M,,F*28
$POSMGYR,-2380,2941,-373*51
$POSMACC,-2440,3596,-12076*55
$GPRMC,101527,A,4721.252,N,00832.154,E,001.0,360.0,110916,000.2,E*72
$SDDBT,,f,,M,,F*28
$POSMGYR,-925,-2368,-2604*7D
$POSMACC,-2424,3968,-15948*59
$SDDBT,,f,,M,,F*28
$POSMGYR,-6355,-1477,-4618*47
$POSMACC,-2648,4648,-19008*5A
$GPRMC,101529,A,4721.252,N,00832.154,E,001.0,360.0,110916,000.2,E*7C
$SDDBT,,f,,M,,F*28
$POSMGYR,292,5817,1340*55
$POSMACC,-3492,5692,-9056*62
$SDDBT,,f,,M,,F*28
$POSMGYR,916,2374,-1433*75
$POSMACC,-2716,7296,-11164*57
$GPRMC,101531,A,4721.251,N,00832.154,E,001.0,360.0,110916,000.2,E*76
$SDDBT,,f,,M,,F*28
$POSMGYR,-3792,3619,-6635*65
$POSMACC,-2596,8724,-13508*52
$SDDBT,,f,,M,,F*28
$POSMGYR,796,1466,-4840*79
$POSMACC,-3292,9372,-13312*5B
$GPRMC,101533,A,4721.249,N,00832.154,E,001.0,360.0,110916,000.2,E*7D
$SDDBT,,f,,M,,F*28
$POSMGYR,-1111,-851,-1375*70
$POSMACC,-2736,8120,-12516*56
$SDDBT,,f,,M,,F*28
$POSMGYR,1575,-748,1175*73
$POSMACC,-3424,11180,-16288*61
$SDDBT,,f,,M,,F*28
$GPRMC,101535,A,4721.248,N,00832.154,E,001.1,360.0,110916,000.2,E*7B
$POSMGYR,-388,2854,72*71
$POSMACC,-3152,6876,-9972*63
$SDDBT,,f,,M,,F*28
$POSMGYR,-671,772,-2921*6B
$POSMACC,-2584,9344,-12356*5E
$GPRMC,101537,A,4721.247,N,00832.154,E,001.1,360.0,110916,000.2,E*76
$SDDBT,,f,,M,,F*28
$POSMGYR,-1323,2130,-1006*65
$POSMACC,-2532,8600,-12728*5A
$SDDBT,,f,,M,,F*28
$POSMGYR,1235,181,-2684*79
$POSMACC,-1256,9276,-13888*5C
$GPRMC,101539,A,4721.247,N,00832.155,E,001.1,360.0,110916,000.2,E*79
$SDDBT,,f,,M,,F*28
$POSMGYR,381,-400,606*72
$POSMACC,-884,9068,-12364*6D
$SDDBT,,f,,M,,F*28
$POSMGYR,-1049,-2351,2130*68
$POSMACC,-1224,7944,-11788*50
$SDDBT,,f,,M,,F*28
$GPRMC,101541,A,4721.246,N,00832.157,E,001.1,360.0,110916,000.2,E*75
$POSMGYR,-97,1699,1218*4F
$POSMACC,-1792,8116,-11544*5A
$SDDBT,,f,,M,,F*28
$POSMGYR,-1486,-1704,1501*6D
$POSMACC,-1384,9492,-13948*53
$SDDBT,,f,,M,,F*28
$GPRMC,101543,A,4721.246,N,00832.158,E,001.1,360.0,110916,000.2,E*78
$POSMGYR,-3123,699,-833*6C
$POSMACC,-2296,10876,-16648*66
$SDDBT,,f,,M,,F*28
$POSMGYR,-440,420,1176*4B
$POSMACC,-2632,10152,-15512*6C
$SDDBT,,f,,M,,F*28
$GPRMC,101545,A,4721.245,N,00832.159,E,001.1,360.0,110916,000.2,E*7C
$POSMGYR,-1803,-2538,5554*66
$POSMACC,-4028,9620,-16012*5B
$SDDBT,,f,,M,,F*28
$POSMGYR,2119,169,1731*50
$POSMACC,-3096,9968,-16500*5C
$GPRMC,101547,A,4721.245,N,00832.160,E,001.2,360.0,110916,000.2,E*77
$SDDBT,,f,,M,,F*28
$POSMGYR,3,1617,1237*54
$POSMACC,-3388,6952,-9808*6D
$SDDBT,,f,,M,,F*28
$POSMGYR,-3784,919,-3250*5C
$POSMACC,-3420,9428,-13236*5B
$SDDBT,,f,,M,,F*28
$GPRMC,101549,A,4721.244,N,00832.161,E,001.3,118.0,110916,000.2,E*75
$POSMGYR,804,1043,-1586*7C
$POSMACC,-3652,9944,-16716*59
$SDDBT,,f,,M,,F*28
$POSMGYR,5238,-1869,4974*48
$POSMACC,-6908,5508,-9200*68
$SDDBT,,f,,M,,F*28
$GPRMC,101551,A,4721.243,N,00832.162,E,001.4,113.3,110916,000.2,E*77
$POSMGYR,5507,-6377,-4260*63
$POSMACC,-4700,3760,-13224*5B
$SDDBT,,f,,M,,F*28
$POSMGYR,199,-2728,-3159*51
$POSMACC,-5100,4008,-17152*54
$SDDBT,,f,,M,,F*28
$GPRMC,101553,A,4721.243,N,00832.163,E,001.4,110.1,110916,000.2,E*75
$POSMGYR,-37,-815,854*60
$POSMACC,-4212,3116,-16876*52
$SDDBT,,f,,M,,F*28
$POSMGYR,1082,-2284,-2776*62
$POSMACC,-4388,3960,-16292*59
$SDDBT,,f,,M,,F*28
$GPRMC,101555,A,4721.243,N,00832.165,E,001.5,108.0,110916,000.2,E*7C
$POSMGYR,313,590,126*59
$POSMACC,-2928,2372,-14340*5B
$SDDBT,,f,,M,,F*28
$POSMGYR,357,-1372,-211*65
$POSMACC,-1972,3160,-14240*56
$SDDBT,,f,,M,,F*28
$GPRMC,101557,A,4721.242,N,00832.166,E,001.4,106.0,110916,000.2,E*73
$POSMGYR,-6030,1326,-2769*68
$POSMACC,-3316,236,-14800*61
$SDDBT,,f,,M,,F*28
$POSMGYR,3458,-5850,2229*45
$POSMACC,-4384,-420,-13588*4B
$SDDBT,,f,,M,,F*28
$GPRMC,101559,A,4721.242,N,00832.166,E,001.4,106.8,110916,000.2,E*75
$POSMGYR,-774,3022,630*4E
$POSMACC,-3704,-2460,-15408*79
$SDDBT,,f,,M,,F*28
$POSMGYR,-3977,3407,-2167*69
$POSMACC,-5440,-3900,-15164*79
$SDDBT,,f,,M,,F*28
$GPRMC,101601,A,4721.242,N,00832.168,E,001.5,103.7,110916,000.2,E*7E
$POSMGYR,1299,254,-1543*7F
$POSMACC,-3284,164,-11612*67
$SDDBT,,f,,M,,F*28
$POSMGYR,-3734,3234,-7710*65
$POSMACC,-5560,-3896,-15572*77
$SDDBT,,f,,M,,F*28
$GPRMC,101603,A,4721.241,N,00832.169,E,001.4,094.7,110916,000.2,E*70
$POSMGYR,-1375,-6079,-714*76
$POSMACC,-2684,1452,-12708*5A
$SDDBT,,f,,M,,F*28
$POSMGYR,4100,-7405,3908*4D
$POSMACC,-4748,-772,-11560*4F
$SDDBT,,f,,M,,F*28
$GPRMC,101605,A,4721.242,N,00832.172,E,001.8,089.4,110916,000.2,E*7C
$POSMGYR,2829,-2685,4081*49
$POSMACC,-5892,248,-16572*63
$SDDBT,,f,,M,,F*28
$POSMGYR,906,2488,1523*5D
$POSMACC,-4236,-624,-17852*4B
$SDDBT,,f,,M,,F*28
$GPRMC,101607,A,4721.243,N,00832.173,E,002.0,084.9,110916,000.2,E*75
$POSMGYR,-4136,2106,-1762*66
$POSMACC,-4564,-1548,-15272*79
$SDDBT,,f,,M,,F*28
$POSMGYR,2968,1214,1349*6D
$POSMACC,-3520,-1068,-11972*76
$SDDBT,,f,,M,,F*28
$GPRMC,101609,A,4721.243,N,00832.175,E,001.8,085.7,110916,000.2,E*79
$POSMGYR,-3807,2555,91*4F
$POSMACC,-8456,-1504,-23200*7D
$SDDBT,,f,,M,,F*28
$POSMGYR,-2013,-2209,1050*6C
$POSMACC,-3044,-920,-13848*4F
$SDDBT,,f,,M,,F*28
$GPRMC,101611,A,4721.243,N,00832.177,E,001.8,086.9,110916,000.2,E*7F
$POSMGYR,-2040,-5834,1662*6E
$POSMACC,-4352,-1128,-15216*7A
$SDDBT,,f,,M,,F*28
$POSMGYR,2708,-3400,4431*44
$POSMACC,-5148,-1696,-13460*71
$SDDBT,,f,,M,,F*28
$GPRMC,101613,A,4721.243,N,00832.178,E,001.8,092.8,110916,000.2,E*76
$POSMGYR,1320,2063,961*58
$POSMACC,-5148,-2312,-18240*74
$SDDBT,,f,,M,,F*28
$POSMGYR,-2700,2834,-1417*6A
$POSMACC,-3804,3860,-16740*5A
$SDDBT,,f,,M,,F*28
$GPRMC,101615,A,4721.242,N,00832.180,E,001.7,092.0,110916,000.2,E*71
$POSMGYR,-959,1061,-896*65
$POSMACC,-2740,-3916,-9172*40
$SDDBT,,f,,M,,F*28
$POSMGYR,-3049,5838,-7468*64
$POSMACC,-6292,-3068,-17152*73
$SDDBT,,f,,M,,F*28
$GPRMC,101617,A,4721.243,N,00832.181,E,001.7,088.8,110916,000.2,E*70
$POSMGYR,-2277,-4908,-219*73
$POSMACC,-2916,248,-13816*63
$SDDBT,,f,,M,,F*28
$POSMGYR,4906,-4645,5849*44
$POSMACC,-4384,568,-13516*6C
$SDDBT,,f,,M,,F*28
$GPRMC,101619,A,4721.243,N,00832.183,E,001.7,091.3,110916,000.2,E*7F
$POSMGYR,-1756,2581,-598*5E
$POSMACC,-3468,-740,-16632*4B
$SDDBT,,f,,M,,F*28
$POSMGYR,-4038,2804,2075*4D
$POSMACC,-4088,3532,-16128*53
$SDDBT,,f,,M,,F*28
$GPRMC,101621,A,4721.242,N,00832.184,E,001.6,095.3,110916,000.2,E*77
$POSMGYR,-101,1959,1113*7A
$POSMACC,-4324,-2844,-11788*7D
$SDDBT,,f,,M,,F*28
$POSMGYR,-247,3300,-3954*5B
$POSMACC,-6448,-1596,-17404*72
$SDDBT,,f,,M,,F*28
$GPRMC,101623,A,4721.242,N,00832.185,E,001.6,095.2,110916,000.2,E*75
$POSMGYR,-5116,-5741,-2591*47
$POSMACC,-3164,588,-15124*6A
$SDDBT,,f,,M,,F*28
$POSMGYR,1325,-5988,4011*41
$POSMACC,-3168,472,-12596*68
$SDDBT,,f,,M,,F*28
$GPRMC,101625,A,4721.242,N,00832.187,E,001.7,092.3,110916,000.2,E*76
$POSMGYR,2094,457,1876*50
$POSMACC,-4432,2768,-17036*55
$SDDBT,,f,,M,,F*28
$POSMGYR,-1796,544,-1902*57
$POSMACC,-2836,-1092,-13880*76
$SDDBT,,f,,M,,F*28
$GPRMC,101627,A,4721.242,N,00832.188,E,001.6,084.8,110916,000.2,E*76
$POSMGYR,-697,1840,-3090*5E
$POSMACC,-3596,3020,-16844*5B
$SDDBT,,f,,M,,F*28
$POSMGYR,-2784,3229,518*73
$POSMACC,-7244,-1280,-22416*7C
$SDDBT,,f,,M,,F*28
$GPRMC,101629,A,4721.242,N,00832.189,E,001.5,091.8,110916,000.2,E*7E
$POSMGYR,-3594,-4113,892*5E
$POSMACC,-3288,-1132,-13592*7D
$SDDBT,,f,,M,,F*28
$POSMGYR,6801,-6364,5317*44
$POSMACC,-3568,132,-12376*65
$SDDBT,,f,,M,,F*28
$GPRMC,101631,A,4721.242,N,00832.190,E,001.4,091.2,110916,000.2,E*74
$POSMGYR,3775,2528,2699*6E
$POSMACC,-6368,-1288,-21348*75
$SDDBT,,f,,M,,F*28
$POSMGYR,-2410,566,566*4B
$POSMACC,-3436,1396,-12440*50
$SDDBT,,f,,M,,F*28
$GPRMC,101633,A,4721.242,N,00832.191,E,001.3,091.9,110916,000.2,E*7B
$POSMGYR,-185,4121,-2304*5E
$POSMACC,-3316,-1264,-11644*71
$SDDBT,,f,,M,,F*28
$POSMGYR,-1251,5967,-3694*63
$POSMACC,-6748,688,-20404*65
$SDDBT,,f,,M,,F*28
$GPRMC,101635,A,4721.242,N,00832.192,E,001.2,091.9,110916,000.2,E*7F
$POSMGYR,-2049,-6273,-422*77
$POSMACC,-2204,704,-13892*6A
$SDDBT,,f,,M,,F*28
$POSMGYR,7059,-5454,6715*42
$POSMACC,-4108,1016,-14448*5A
$SDDBT,,f,,M,,F*28
$GPRMC,101637,A,4721.241,N,00832.193,E,001.3,091.9,110916,000.2,E*7E
$POSMGYR,-432,3512,-1120*53
$POSMACC,-4092,64,-15504*54
$SDDBT,,f,,M,,F*28
$POSMGYR,-4617,522,1419*70
$POSMACC,-5284,-376,-18660*41
$SDDBT,,f,,M,,F*28
$GPRMC,101639,A,4721.241,N,00832.194,E,001.3,091.9,110916,000.2,E*77
$POSMGYR,1834,-3480,3716*4E
$POSMACC,-4964,-412,-15352*49
$SDDBT,,f,,M,,F*28
$POSMGYR,1258,3593,1790*6C
$POSMACC,-4936,-620,-15300*4A
$SDDBT,,f,,M,,F*28
$GPRMC,101641,A,4721.241,N,00832.195,E,001.1,091.9,110916,000.2,E*7B
$POSMGYR,-1329,2074,-2781*65
$POSMACC,-4568,1148,-15248*55
$SDDBT,,f,,M,,F*28
$POSMGYR,-7642,-1814,-3236*43
$POSMACC,-3952,-2664,-13912*72
$SDDBT,,f,,M,,F*28
$GPRMC,101643,A,4721.240,N,00832.196,E,001.2,091.9,110916,000.2,E*78
$POSMGYR,-6376,-2537,4967*6A
$POSMACC,-1584,-3512,-8468*4E
$SDDBT,,f,,M,,F*28
$POSMGYR,-3938,2303,-6374*64
$POSMACC,-4848,-988,-15780*43
$SDDBT,,f,,M,,F*28
$GPRMC,101645,A,4721.239,N,00832.197,E,001.0,091.9,110916,000.2,E*73
$POSMGYR,2391,-2849,2234*45
$POSMACC,-4432,2292,-11088*56
$SDDBT,,f,,M,,F*28
$POSMGYR,-4391,-1401,-2559*4C
$POSMACC,-13864,6376,-9000*59
$SDDBT,,f,,M,,F*28
$GPRMC,101647,A,4721.239,N,00832.197,E,000.9,091.9,110916,000.2,E*79
$POSMGYR,1267,85,538*50
$POSMACC,-13972,6708,-3124*5F
$SDDBT,,f,,M,,F*28
$POSMGYR,-3054,2232,3275*4C
$POSMACC,-11616,17224,4168*49
$SDDBT,,f,,M,,F*28
$GPRMC,101649,A,4721.240,N,00832.197,E,000.0,091.9,110916,000.2,E*70
$POSMGYR,1015,-60,-316*56
$POSMACC,940,14472,10444*50
$SDDBT,2.69,f,0.82,M,0.44,F*31
$POSMGYR,2086,6495,3115*65
$POSMACC,-1240,13980,11272*42
$SDDBT,1.27,f,0.39,M,0.21,F*3B
$GPRMC,101651,A,4721.240,N,00832.198,E,000.0,091.9,110916,000.2,E*76
$POSMGYR,2287,8383,6827*65
$POSMACC,444,13088,11808*5A
$SDDBT,1.18,f,0.36,M,0.19,F*33
$POSMGYR,-2033,1365,2711*4A
$POSMACC,-504,13452,9312*48
$SDDBT,1.11,f,0.34,M,0.18,F*39
$GPRMC,101653,A,4721.240,N,00832.197,E,000.0,091.9,110916,000.2,E*7B
$POSMGYR,2096,7686,5251*60
$POSMACC,-700,11020,11008*7C
$SDDBT,1.90,f,0.58,M,0.31,F*31
$POSMGYR,624,-3423,-963*6B
$POSMACC,-72,14608,10616*4F
$SDDBT,2.00,f,0.61,M,0.33,F*33
$GPRMC,101655,A,4721.240,N,00832.198,E,000.0,091.9,110916,000.2,E*72
$POSMGYR,-3319,2462,886*70
$POSMACC,-308,13652,12284*74
$SDDBT,11.94,f,3.64,M,1.99,F*0B
$POSMGYR,535,2851,2245*5D
$POSMACC,1004,15264,10112*6E
$SDDBT,13.22,f,4.03,M,2.20,F*03
$GPRMC,101657,A,4721.240,N,00832.197,E,000.0,091.9,110916,000.2,E*7F
$POSMGYR,-2458,423,-756*6B
$POSMACC,-224,13788,10496*7A
$SDDBT,8.89,f,2.71,M,1.48,F*36
$POSMGYR,-1787,553,391*4D
$POSMACC,-488,13596,10596*76
$SDDBT,7.57,f,2.31,M,1.26,F*36
$GPRMC,101659,A,4721.239,N,00832.197,E,000.0,091.9,110916,000.2,E*7F
$POSMGYR,-621,2668,2427*70
$POSMACC,664,13888,10848*57
$SDDBT,7.48,f,2.28,M,1.24,F*32
$POSMGYR,-188,2092,-527*69
$POSMACC,-412,12760,11012*77
$SDDBT,8.00,f,2.44,M,1.33,F*3D
$GPRMC,101701,A,4721.239,N,00832.197,E,000.0,091.9,110916,000.2,E*73
$POSMGYR,-77,-353,201*67
$POSMACC,-904,14408,9948*49
$SDDBT,8.49,f,2.59,M,1.41,F*39
$POSMGYR,-3183,4998,2572*4B
$POSMACC,896,13660,9928*63
$SDDBT,7.31,f,2.23,M,1.21,F*32
$GPRMC,101703,A,4721.239,N,00832.197,E,000.0,091.9,110916,000.2,E*71
$POSMGYR,-1581,2603,3838*46
$POSMACC,720,11748,10860*5D
$SDDBT,6.49,f,1.98,M,1.08,F*34
$POSMGYR,1030,2758,2529*67
$POSMACC,40,12608,10660*64
$SDDBT,7.57,f,2.31,M,1.26,F*36
$GPRMC,101705,A,4721.239,N,00832.197,E,000.0,091.9,110916,000.2,E*77
$POSMGYR,-152,395,4486*4B
$POSMACC,132,14484,11060*57
$SDDBT,7.31,f,2.23,M,1.21,F*32
$POSMGYR,457,3181,190*64
$POSMACC,-112,12456,10552*74
$SDDBT,7.12,f,2.17,M,1.18,F*3E
$GPRMC,101707,A,4721.239,N,00832.197,E,000.0,091.9,110916,000.2,E*75
$POSMGYR,-2288,2484,671*76
$POSMACC,252,12928,10560*5B
$SDDBT,7.18,f,2.19,M,1.19,F*3B
$POSMGYR,622,2628,-135*43
$POSMACC,208,13160,10432*57
$SDDBT,7.28,f,2.22,M,1.21,F*3B
$GPRMC,101709,A,4721.239,N,00832.197,E,000.0,091.9,110916,000.2,E*7B
$POSMGYR,-1907,2493,-862*5E
$POSMACC,100,13192,10408*58
$SDDBT,10.82,f,3.30,M,1.80,F*04
$POSMGYR,-214,895,674*7A
$POSMACC,-752,13544,10440*77
$SDDBT,6.89,f,2.10,M,1.14,F*36
$GPRMC,101711,A,4721.239,N,00832.197,E,000.0,091.9,110916,000.2,E*72
$POSMGYR,1565,1262,-768*75
$POSMACC,376,12892,10496*54
$SDDBT,8.30,f,2.53,M,1.38,F*33
$POSMGYR,-2906,-15573,-11868*42
$POSMACC,-364,14092,9076*46
$SDDBT,8.30,f,2.53,M,1.38,F*33
$GPRMC,101713,A,4721.240,N,00832.196,E,000.0,091.9,110916,000.2,E*7F
$POSMGYR,-95,-3419,-1996*48
$POSMACC,-1144,12260,11656*43
$SDDBT,12.20,f,3.72,M,2.03,F*00
$POSMGYR,2741,-3038,-6234*6A
$POSMACC,-176,11856,12180*70
$SDDBT,12.20,f,3.72,M,2.03,F*00
$GPRMC,101715,A,4721.239,N,00832.196,E,000.0,091.9,110916,000.2,E*77
$POSMGYR,-2032,305,-2634*57
$POSMACC,144,14464,12220*5D
$SDDBT,10.92,f,3.33,M,1.82,F*04
$POSMGYR,1715,2695,4447*68
$POSMACC,252,13704,10384*56
$SDDBT,11.81,f,3.60,M,1.96,F*04
$GPRMC,101717,A,4721.239,N,00832.196,E,000.0,091.9,110916,000.2,E*75
$POSMGYR,-1819,394,4082*7D
$POSMACC,96,12268,10664*69
$SDDBT,11.81,f,3.60,M,1.96,F*04
$POSMGYR,-3279,1636,-567*58
$POSMACC,596,13464,11024*54
$SDDBT,10.27,f,3.13,M,1.71,F*04
$GPRMC,101719,A,4721.239,N,00832.197,E,000.0,091.9,110916,000.2,E*7A
$POSMGYR,-913,981,-462*5A
$POSMACC,-536,12864,10268*75
$SDDBT,9.58,f,2.92,M,1.59,F*36
$POSMGYR,-4303,192,74*71
$POSMACC,-224,11184,9884*45
$SDDBT,10.07,f,3.07,M,1.67,F*04
$GPRMC,101721,A,4721.239,N,00832.197,E,000.0,091.9,110916,000.2,E*71
$POSMGYR,-2604,-3059,2857*66
$POSMACC,104,11816,10120*54
$SDDBT,8.66,f,2.64,M,1.44,F*3F
$POSMGYR,-2474,-2530,-1730*48
$POSMACC,344,13396,10644*56
$SDDBT,7.18,f,2.19,M,1.19,F*3B
$GPRMC,101723,A,4721.238,N,00832.197,E,000.0,091.9,110916,000.2,E*72
$POSMGYR,1125,-3842,-1534*68
$POSMACC,180,11912,10668*56
$SDDBT,7.18,f,2.19,M,1.19,F*3B
$POSMGYR,-835,-5713,1254*5D
$POSMACC,-16,13328,10716*4C
$SDDBT,7.21,f,2.20,M,1.20,F*31
$GPRMC,101725,A,4721.238,N,00832.197,E,000.0,091.9,110916,000.2,E*74
$POSMGYR,71,-1988,-1941*62
$POSMACC,-336,12972,11552*7A
$SDDBT,6.72,f,2.05,M,1.12,F*30
$POSMGYR,1324,260,-3411*7B
$POSMACC,472,13564,10872*54
$SDDBT,6.62,f,2.02,M,1.10,F*34
$GPRMC,101727,A,4721.238,N,00832.197,E,000.0,091.9,110916,000.2,E*76
$POSMGYR,1610,346,-1596*70
$POSMACC,-900,11972,11136*70
$SDDBT,6.43,f,1.96,M,1.07,F*3F
$POSMGYR,1030,306,-98*7A
$POSMACC,-476,13800,10928*7C
$SDDBT,6.69,f,2.04,M,1.11,F*38
$GPRMC,101729,A,4721.238,N,00832.197,E,000.0,091.9,110916,000.2,E*78
$POSMGYR,2014,-2950,4135*46
$POSMACC,184,13428,10248*52
$SDDBT,6.49,f,1.98,M,1.08,F*34
$POSMGYR,-1577,713,927*41
$POSMACC,676,13156,11216*5E
$SDDBT,6.49,f,1.98,M,1.08,F*34
$GPRMC,101731,A,4721.238,N,00832.197,E,000.0,091.9,110916,000.2,E*71
$POSMGYR,1263,1522,-194*72
$POSMACC,-1004,12480,10932*42
$SDDBT,6.33,f,1.93,M,1.05,F*3F
$POSMGYR,57,472,979*65
$POSMACC,572,13488,10456*5C
$SDDBT,6.92,f,2.11,M,1.15,F*3C
$GPRMC,101733,A,4721.238,N,00832.197,E,000.0,091.9,110916,000.2,E*73
$POSMGYR,-1146,383,315*41
$POSMACC,1000,13960,10740*62
$SDDBT,7.48,f,2.28,M,1.24,F*32
$POSMGYR,-3765,-2114,2690*6D
$POSMACC,-176,10232,9604*48
$SDDBT,7.48,f,2.28,M,1.24,F*32
$GPRMC,101735,A,4721.238,N,00832.196,E,000.0,091.9,110916,000.2,E*74
$POSMGYR,-457,-355,540*55
$POSMACC,92,13268,11344*6A
$SDDBT,6.43,f,1.96,M,1.07,F*3F
$POSMGYR,-767,-2116,1829*51
$POSMACC,0,12136,9952*6C
$SDDBT,6.43,f,1.96,M,1.07,F*3F
$GPRMC,101737,A,4721.238,N,00832.196,E,000.0,091.9,110916,000.2,E*76
$POSMGYR,90,2887,1930*66
$POSMACC,-892,14132,9648*44
$SDDBT,6.69,f,2.04,M,1.11,F*38
$POSMGYR,-1295,-1249,1026*65
$POSMACC,80,12368,10980*6A
$SDDBT,7.31,f,2.23,M,1.21,F*32
$GPRMC,101739,A,4721.238,N,00832.196,E,000.0,091.9,110916,000.2,E*78
$POSMGYR,1255,-3317,-1673*67
$POSMACC,-3520,11616,12056*44
$SDDBT,7.31,f,2.23,M,1.21,F*32
$POSMGYR,-1230,-3354,-2602*4B
$POSMACC,-716,13540,9740*48
$SDDBT,10.17,f,3.10,M,1.69,F*0D
$GPRMC,101741,A,4721.237,N,00832.196,E,000.0,091.9,110916,000.2,E*78
$POSMGYR,-698,-2712,-1742*7D
$POSMACC,940,14464,11424*50
$SDDBT,12.43,f,3.79,M,2.07,F*0A
$POSMGYR,3191,-3594,465*7A
$POSMACC,-84,12576,10596*41
$SDDBT,12.23,f,3.73,M,2.03,F*02
$GPRMC,101743,A,4721.237,N,00832.196,E,000.0,091.9,110916,000.2,E*7A
$POSMGYR,-1514,-148,-3380*78
$POSMACC,-1364,12996,10836*48
$SDDBT,12.53,f,3.82,M,2.08,F*00
$POSMGYR,-1024,-3662,1177*67
$POSMACC,100,13924,10808*51
$SDDBT,12.60,f,3.84,M,2.10,F*0F
$GPRMC,101745,A,4721.237,N,00832.196,E,000.0,091.9,110916,000.2,E*7C
$POSMGYR,-1015,-2376,158*58
$POSMACC,-436,12036,10012*74
$SDDBT,7.97,f,2.43,M,1.32,F*3A
$POSMGYR,-4160,-1734,-444*7A
$POSMACC,736,13448,10396*59
$SDDBT,6.89,f,2.10,M,1.14,F*36
$GPRMC,101747,A,4721.237,N,00832.196,E,000.0,091.9,110916,000.2,E*7E
$POSMGYR,-965,-16383,-11389*7B
$POSMACC,284,13860,9484*6F
$SDDBT,7.38,f,2.25,M,1.23,F*3F
$POSMGYR,-1772,1197,2797*4A
$POSMACC,-136,13052,11656*75
$SDDBT,6.59,f,2.01,M,1.09,F*37
$GPRMC,101749,A,4721.237,N,00832.196,E,000.0,091.9,110916,000.2,E*70
$POSMGYR,-883,362,-684*5F
$POSMACC,512,13204,10808*5F
$SDDBT,6.33,f,1.93,M,1.05,F*3F
$POSMGYR,1654,-901,-2605*5E
$POSMACC,-640,13776,11912*7D
$SDDBT,7.48,f,2.28,M,1.24,F*32
$GPRMC,101751,A,4721.237,N,00832.197,E,000.0,091.9,110916,000.2,E*78
$POSMGYR,590,813,3480*68
$POSMACC,1900,14020,11380*68
$SDDBT,7.31,f,2.23,M,1.21,F*32
$POSMGYR,793,4475,-4345*75
$POSMACC,2684,13208,11672*6F
$SDDBT,7.71,f,2.35,M,1.28,F*38
$GPRMC,101753,A,4721.238,N,00832.197,E,000.0,091.9,110916,000.2,E*75
$POSMGYR,-2488,-22,-590*76
$POSMACC,176,12932,11892*54
$SDDBT,9.35,f,2.85,M,1.55,F*37
$POSMGYR,-223,2312,586*46
$POSMACC,904,14096,11264*5B
$SDDBT,6.62,f,2.02,M,1.10,F*34
$GPRMC,101755,A,4721.238,N,00832.198,E,000.0,091.9,110916,000.2,E*7C
$POSMGYR,1206,3230,585*5E
$POSMACC,-436,12932,10768*73
$SDDBT,6.33,f,1.93,M,1.05,F*3F
$POSMGYR,702,-3171,-3224*57
$POSMACC,-432,13996,11752*70
$SDDBT,5.51,f,1.68,M,0.91,F*30
$GPRMC,101757,A,4721.238,N,00832.199,E,000.0,091.9,110916,000.2,E*7F
$POSMGYR,1803,615,-1969*73
$POSMACC,912,13616,10728*59
$SDDBT,6.03,f,1.84,M,1.00,F*3F
$POSMGYR,-2804,-2492,1214*64
$POSMACC,-476,12584,10892*7C
$SDDBT,5.93,f,1.81,M,0.98,F*30
$GPRMC,101759,A,4721.238,N,00832.199,E,000.0,091.9,110916,000.2,E*71
$POSMGYR,-204,-606,71*61
$POSMACC,-264,11600,12332*76
$SDDBT,6.43,f,1.96,M,1.07,F*3F
$POSMGYR,901,-1646,1780*7F
$POSMACC,-844,10820,10960*7C
$SDDBT,6.23,f,1.90,M,1.03,F*3B
$GPRMC,101801,A,4721.238,N,00832.200,E,000.0,091.9,110916,000.2,E*70
$POSMGYR,949,1224,-2012*7C
$POSMACC,1676,13196,10584*6E
$SDDBT,6.43,f,1.96,M,1.07,F*3F
$POSMGYR,-4482,-470,374*68
$POSMACC,-1820,13272,10800*46
$SDDBT,6.30,f,1.92,M,1.05,F*3D
$GPRMC,101803,A,4721.238,N,00832.200,E,000.0,091.9,110916,000.2,E*72
$POSMGYR,866,-1186,-953*68
$POSMACC,392,12868,11732*57
$SDDBT,6.10,f,1.86,M,1.01,F*3E
$POSMGYR,1172,-2234,931*75
$POSMACC,-792,11760,11960*73
$SDDBT,5.80,f,1.77,M,0.96,F*35
$GPRMC,101805,A,4721.238,N,00832.200,E,000.0,091.9,110916,000.2,E*74
$POSMGYR,2377,2643,-541*7E
$POSMACC,284,14448,10796*56
$SDDBT,5.74,f,1.75,M,0.95,F*3F
$POSMGYR,-465,-915,1284*64
$POSMACC,-312,11892,11012*71
$SDDBT,5.70,f,1.74,M,0.95,F*3A
$GPRMC,101807,A,4721.238,N,00832.201,E,000.0,091.9,110916,000.2,E*77
$POSMGYR,-135,-3306,4235*50
$POSMACC,396,14464,10896*55
$SDDBT,6.20,f,1.89,M,1.03,F*30
$POSMGYR,-931,-153,-1092*4A
$POSMACC,1380,13448,9908*54
$SDDBT,6.49,f,1.98,M,1.08,F*34
$GPRMC,101809,A,4721.238,N,00832.201,E,000.0,091.9,110916,000.2,E*79
$POSMGYR,-467,3578,-4354*5B
$POSMACC,-1412,13744,10292*4A
$SDDBT,7.21,f,2.20,M,1.20,F*31
$POSMGYR,-264,442,1423*4A
$POSMACC,-184,12568,11340*73
$SDDBT,8.56,f,2.61,M,1.42,F*3F
$GPRMC,101811,A,4721.238,N,00832.202,E,000.0,091.9,110916,000.2,E*73
$POSMGYR,-281,1152,-346*6C
$POSMACC,-252,12376,10888*7C
$SDDBT,10.66,f,3.25,M,1.77,F*02
$POSMGYR,168,1277,-1174*73
$POSMACC,-600,12036,9812*43
$SDDBT,11.22,f,3.42,M,1.87,F*0D
$GPRMC,101813,A,4721.238,N,00832.202,E,000.0,091.9,110916,000.2,E*71
$POSMGYR,-2217,-404,-458*43
$POSMACC,-432,14120,10172*77
$SDDBT,11.94,f,3.64,M,1.99,F*0B
$POSMGYR,-501,903,-318*55
$POSMACC,212,13792,11736*51
$SDDBT,11.94,f,3.64,M,1.99,F*0B
$GPRMC,101815,A,4721.239,N,00832.203,E,000.0,091.9,110916,000.2,E*77
$POSMGYR,-1184,1351,-4553*6C
$POSMACC,-224,14264,9820*43
$SDDBT,11.94,f,3.64,M,1.99,F*0B
$POSMGYR,-751,669,-2289*6A
$POSMACC,436,13748,11320*55
$SDDBT,12.69,f,3.87,M,2.11,F*04
$GPRMC,101817,A,4721.239,N,00832.204,E,000.0,091.9,110916,000.2,E*72
$POSMGYR,1761,4551,392*5D
$POSMACC,-548,13212,11520*7C
$SDDBT,11.51,f,3.51,M,1.91,F*0C
$POSMGYR,220,1444,-385*47
$POSMACC,-924,13312,11448*74
$SDDBT,11.41,f,3.48,M,1.90,F*04
$GPRMC,101819,A,4721.239,N,00832.204,E,000.0,091.9,110916,000.2,E*7C
$POSMGYR,-46,-1925,-502*76
$POSMACC,1024,12980,11564*6E
$SDDBT,11.55,f,3.52,M,1.92,F*08
$POSMGYR,302,3355,-304*4A
$POSMACC,-88,13832,11212*4B
$SDDBT,11.32,f,3.45,M,1.88,F*04
$GPRMC,101821,A,4721.239,N,00832.205,E,000.9,091.9,110916,000.2,E*7F
$POSMGYR,-1852,154,2696*79
$POSMACC,-1584,11312,11424*4B
$SDDBT,11.12,f,3.39,M,1.85,F*00
$POSMGYR,1152,-570,86*77
$POSMACC,-132,13200,10636*73
$SDDBT,11.22,f,3.42,M,1.87,F*0D
$GPRMC,101823,A,4721.239,N,00832.206,E,000.9,091.9,110916,000.2,E*7E
$POSMGYR,-751,-8198,-1293*7E
$POSMACC,508,12824,10380*56
$SDDBT,11.02,f,3.36,M,1.83,F*08
$POSMGYR,-778,4935,1305*78
$POSMACC,788,13760,11424*5A
$SDDBT,11.05,f,3.37,M,1.84,F*09
$GPRMC,101825,A,4721.239,N,00832.206,E,000.9,091.9,110916,000.2,E*78
$POSMGYR,-3126,-952,-1121*77
$POSMACC,104,14760,11016*5A
$SDDBT,10.82,f,3.30,M,1.80,F*04
$POSMGYR,-609,1025,-1193*52
$POSMACC,-104,14004,10692*79
$SDDBT,10.86,f,3.31,M,1.81,F*00
$GPRMC,101827,A,4721.239,N,00832.207,E,000.9,091.9,110916,000.2,E*7B
$POSMGYR,2616,-318,1253*70
$POSMACC,796,14512,11256*56
$SDDBT,10.66,f,3.25,M,1.77,F*02
$POSMGYR,-597,2556,-2197*53
$POSMACC,704,11780,11972*5C
$SDDBT,11.22,f,3.42,M,1.87,F*0D
$GPRMC,101829,A,4721.239,N,00832.208,E,000.9,091.9,110916,000.2,E*7A
$POSMGYR,-2221,-1467,-849*7E
$POSMACC,-652,13288,11384*7F
$SDDBT,10.36,f,3.16,M,1.72,F*02
$POSMGYR,-1280,-1541,1406*68
$POSMACC,296,12356,9544*6E
$SDDBT,10.43,f,3.18,M,1.73,F*0F
$GPRMC,101831,A,4721.239,N,00832.209,E,000.9,091.9,110916,000.2,E*72
$POSMGYR,-232,1823,1622*70
$POSMACC,628,13536,10580*5E
$SDDBT,10.46,f,3.19,M,1.74,F*0C
$POSMGYR,1621,-1395,-2265*68
$POSMACC,-260,15100,12380*78
$SDDBT,10.13,f,3.09,M,1.68,F*00
$GPRMC,101833,A,4721.239,N,00832.209,E,000.9,091.9,110916,000.2,E*70
$POSMGYR,390,4492,814*6D
$POSMACC,584,12976,12696*54
$SDDBT,9.94,f,3.03,M,1.65,F*30
$POSMGYR,-2256,-6116,-9452*45
$POSMACC,-1256,13048,10468*44
$SDDBT,10.07,f,3.07,M,1.67,F*04
$GPRMC,101835,A,4721.239,N,00832.210,E,000.9,091.9,110916,000.2,E*7E
$POSMGYR,729,2782,1995*56
$POSMACC,312,13884,12584*50
$SDDBT,9.67,f,2.95,M,1.61,F*36
$POSMGYR,-448,1188,-834*66
$POSMACC,168,12524,10492*5D
$SDDBT,9.74,f,2.97,M,1.62,F*35
$GPRMC,101837,A,4721.239,N,00832.211,E,000.9,091.9,110916,000.2,E*7D
$POSMGYR,-555,-1364,-2433*7F
$POSMACC,-848,12304,11588*74
$SDDBT,9.58,f,2.92,M,1.59,F*36
$POSMGYR,234,4966,2471*59
$POSMACC,-604,11852,10556*7B
$SDDBT,9.35,f,2.85,M,1.55,F*37
$GPRMC,101839,A,4721.239,N,00832.211,E,000.9,091.9,110916,000.2,E*73
$POSMGYR,-1353,-1258,-5602*47
$POSMACC,696,12380,9960*6B
$SDDBT,9.08,f,2.77,M,1.51,F*30
$POSMGYR,17,5986,213*55
$POSMACC,-616,13028,10988*70
$SDDBT,9.08,f,2.77,M,1.51,F*30
$GPRMC,101841,A,4721.240,N,00832.212,E,000.9,091.9,110916,000.2,E*71
$POSMGYR,1563,-2355,2186*41
$POSMACC,-252,15900,11308*72
$SDDBT,8.95,f,2.73,M,1.49,F*38
$POSMGYR,-1847,-4418,-4611*4D
$POSMACC,-244,12284,10892*7C
$SDDBT,8.95,f,2.73,M,1.49,F*38
$GPRMC,101843,A,4721.240,N,00832.213,E,000.0,091.9,110916,000.2,E*7B
$POSMGYR,107,1990,2409*59
$POSMACC,-1172,12052,9904*74
$SDDBT,8.95,f,2.73,M,1.49,F*38
$POSMGYR,7828,-2394,-1883*6A
$POSMACC,-956,15416,12596*75
$SDDBT,8.89,f,2.71,M,1.48,F*36
$GPRMC,101845,A,4721.240,N,00832.213,E,000.9,091.9,110916,000.2,E*74
$POSMGYR,2449,-1991,273*71
$POSMACC,-200,14836,11752*7B
$SDDBT,8.76,f,2.67,M,1.46,F*3F
$POSMGYR,-2750,1933,-75*6B
$POSMACC,824,15336,8988*61
$SDDBT,8.85,f,2.70,M,1.47,F*34
$GPRMC,101847,A,4721.240,N,00832.214,E,000.9,091.9,110916,000.2,E*71
$POSMGYR,-1473,844,-472*69
$POSMACC,180,13460,11804*59
$SDDBT,8.59,f,2.62,M,1.43,F*32
$POSMGYR,868,-280,-1275*6C
$POSMACC,-224,13772,11964*7E
$SDDBT,8.59,f,2.62,M,1.43,F*32
$GPRMC,101849,A,4721.240,N,00832.215,E,000.9,091.9,110916,000.2,E*7E
$POSMGYR,346,34,1933*5F
$POSMACC,-480,13780,11516*72
$SDDBT,8.40,f,2.56,M,1.40,F*3E
$POSMGYR,-1968,-1188,2770*65
$POSMACC,-532,13260,9996*4C
$SDDBT,8.59,f,2.62,M,1.43,F*32
$GPRMC,101851,A,4721.240,N,00832.215,E,000.0,091.9,110916,000.2,E*7E
$POSMGYR,-140,-1040,-967*44
$POSMACC,712,13552,12036*5E
$SDDBT,8.26,f,2.52,M,1.37,F*3A
$POSMGYR,-1429,4257,2262*42
$POSMACC,-592,12820,9924*40
$SDDBT,8.46,f,2.58,M,1.41,F*37
$GPRMC,101853,A,4721.240,N,00832.216,E,000.0,091.9,110916,000.2,E*7F
$POSMGYR,-2321,-3719,-850*7F
$POSMACC,-1116,13128,10180*47
$SDDBT,8.36,f,2.55,M,1.39,F*32
$POSMGYR,-979,-1519,-805*4A
$POSMACC,-212,13700,10092*7F
$SDDBT,8.26,f,2.52,M,1.37,F*3A
$GPRMC,101855,A,4721.240,N,00832.217,E,000.0,091.9,110916,000.2,E*78
$POSMGYR,1564,3477,-768*74
$POSMACC,-1776,12656,10680*4F
$SDDBT,8.26,f,2.52,M,1.37,F*3A
$POSMGYR,-3073,-4694,1918*68
$POSMACC,220,13116,10188*58
$SDDBT,8.20,f,2.50,M,1.36,F*3F
$GPRMC,101857,A,4721.240,N,00832.217,E,000.0,091.9,110916,000.2,E*7A
$POSMGYR,-1288,3102,-1511*66
$POSMACC,844,13068,11676*5F
$SDDBT,8.07,f,2.46,M,1.34,F*3F
$POSMGYR,221,-1222,1168*70
$POSMACC,-1740,15212,9536*7F
$SDDBT,8.20,f,2.50,M,1.36,F*3F
$GPRMC,101859,A,4721.240,N,00832.218,E,000.0,091.9,110916,000.2,E*7B
$POSMGYR,-2530,-1253,1853*6F
$POSMACC,272,12280,11376*50
$SDDBT,7.90,f,2.41,M,1.31,F*3C
$POSMGYR,-1140,-1522,-958*78
$POSMACC,-1040,12676,9284*77
$SDDBT,8.00,f,2.44,M,1.33,F*3D
$GPRMC,101901,A,4721.240,N,00832.219,E,000.0,091.9,110916,000.2,E*76
$POSMGYR,-274,-347,430*57
$POSMACC,1184,11904,10900*65
$SDDBT,7.77,f,2.37,M,1.29,F*3D
$POSMGYR,1120,3060,217*52
$POSMACC,1340,13496,11904*6E
$SDDBT,7.71,f,2.35,M,1.28,F*38
$GPRMC,101903,A,4721.241,N,00832.219,E,000.0,091.9,110916,000.2,E*75
$POSMGYR,828,-1716,-2576*54
$POSMACC,264,12592,11636*52
$SDDBT,7.38,f,2.25,M,1.23,F*3F
$POSMGYR,-454,3084,938*44
$POSMACC,68,13028,10648*61
$SDDBT,7.51,f,2.29,M,1.25,F*3A
$GPRMC,101905,A,4721.241,N,00832.220,E,000.0,091.9,110916,000.2,E*79
$POSMGYR,652,-631,-157*57
$POSMACC,472,12400,12040*5D
$SDDBT,7.61,f,2.32,M,1.26,F*30
$POSMGYR,324,1556,-1115*7A
$POSMACC,400,13804,11252*53
$SDDBT,7.71,f,2.35,M,1.28,F*38
$GPRMC,101907,A,4721.241,N,00832.221,E,000.0,091.9,110916,000.2,E*7A
$POSMGYR,-1947,476,-229*66
$POSMACC,-280,14172,10968*7C
$SDDBT,7.41,f,2.26,M,1.23,F*32
$POSMGYR,-414,870,224*76
$POSMACC,1044,14252,11200*6F
$SDDBT,7.57,f,2.31,M,1.26,F*36
$GPRMC,101909,A,4721.241,N,00832.221,E,000.9,091.9,110916,000.2,E*7D
$POSMGYR,137,-1851,-2831*51
$POSMACC,992,14128,10652*50
$SDDBT,7.71,f,2.35,M,1.28,F*38
$POSMGYR,1213,1249,2446*6A
$POSMACC,-500,15252,9836*41
$SDDBT,7.51,f,2.29,M,1.25,F*3A
$GPRMC,101911,A,4721.241,N,00832.222,E,000.0,091.9,110916,000.2,E*7E
$POSMGYR,-935,1392,1744*7C
$POSMACC,164,12768,11832*5C
$SDDBT,7.67,f,2.34,M,1.27,F*31
$POSMGYR,-1767,-3229,-1725*40
$POSMACC,-792,14208,10576*77
$SDDBT,7.48,f,2.28,M,1.24,F*32
$GPRMC,101913,A,4721.241,N,00832.223,E,000.0,091.9,110916,000.2,E*7D
$POSMGYR,514,1192,981*6A
$POSMACC,-20,13148,10324*48
$SDDBT,7.48,f,2.28,M,1.24,F*32
$POSMGYR,536,2871,763*6F
$POSMACC,4,15052,9792*6E
$SDDBT,7.57,f,2.31,M,1.26,F*36
$GPRMC,101915,A,4721.241,N,00832.223,E,000.0,091.9,110916,000.2,E*7B
$POSMGYR,1181,152,-1712*76
$POSMACC,-720,13184,12052*7F
$SDDBT,7.38,f,2.25,M,1.23,F*3F
$POSMGYR,-1018,-45,3038*60
$POSMACC,120,13360,10880*59
$SDDBT,7.41,f,2.26,M,1.23,F*32
$GPRMC,101917,A,4721.241,N,00832.224,E,000.0,091.9,110916,000.2,E*7E
$POSMGYR,-39,1016,848*74
$POSMACC,196,13168,10596*54
$SDDBT,7.48,f,2.28,M,1.24,F*32
$POSMGYR,-680,-3679,-362*4E
$POSMACC,-604,13812,11396*76
$SDDBT,7.31,f,2.23,M,1.21,F*32
$GPRMC,101919,A,4721.241,N,00832.225,E,000.0,091.9,110916,000.2,E*71
$POSMGYR,-2186,3133,467*76
$POSMACC,-432,14348,11368*73
$SDDBT,7.28,f,2.22,M,1.21,F*3B
$POSMGYR,822,-5505,-4149*54
$POSMACC,1180,13192,10848*69
$SDDBT,7.28,f,2.22,M,1.21,F*3B
$GPRMC,101921,A,4721.241,N,00832.225,E,000.0,091.9,110916,000.2,E*7A
$POSMGYR,-859,3338,3648*7A
$POSMACC,-476,11024,11804*7E
$SDDBT,7.18,f,2.19,M,1.19,F*3B
$POSMGYR,-1362,-4456,-1741*4A
$POSMACC,1100,13992,11064*6E
$SDDBT,7.41,f,2.26,M,1.23,F*32
$GPRMC,101923,A,4721.241,N,00832.226,E,000.0,091.9,110916,000.2,E*7B
$POSMGYR,1285,-1294,1048*41
$POSMACC,284,13228,11232*5B
$SDDBT,7.18,f,2.19,M,1.19,F*3B
$POSMGYR,-3931,3566,1257*43
$POSMACC,620,10136,9916*6A
$SDDBT,7.18,f,2.19,M,1.19,F*3B
$GPRMC,101925,A,4721.241,N,00832.227,E,000.0,091.9,110916,000.2,E*7C
$POSMGYR,-678,-344,1195*67
$POSMACC,-580,11276,10664*7A
$SDDBT,7.21,f,2.20,M,1.20,F*31
$POSMGYR,-3856,-2386,-6851*41
$POSMACC,488,12696,8604*68
$SDDBT,7.28,f,2.22,M,1.21,F*3B
$GPRMC,101927,A,4721.241,N,00832.227,E,000.0,091.9,110916,000.2,E*7E
$POSMGYR,773,-2025,-2892*56
$POSMACC,-480,13832,11908*77
$SDDBT,7.02,f,2.14,M,1.17,F*33
$POSMGYR,-3099,5096,6812*48
$POSMACC,-48,12848,11664*4E
$SDDBT,6.82,f,2.08,M,1.13,F*33
$GPRMC,101929,A,4721.242,N,00832.228,E,000.0,091.9,110916,000.2,E*7C
$POSMGYR,471,324,-173*7E
$POSMACC,-284,14532,11496*75
$SDDBT,7.12,f,2.17,M,1.18,F*3E
$POSMGYR,-1722,-4295,-2834*4D
$POSMACC,352,14100,11120*5F
$SDDBT,7.12,f,2.17,M,1.18,F*3E
$GPRMC,101931,A,4721.242,N,00832.228,E,000.0,091.9,110916,000.2,E*75
$POSMGYR,923,887,2998*64
$POSMACC,604,13776,11996*5C
$SDDBT,6.98,f,2.13,M,1.16,F*37
$POSMGYR,-4148,-1051,191*54
$POSMACC,84,14380,11188*6F
$SDDBT,7.18,f,2.19,M,1.19,F*3B
$GPRMC,101933,A,4721.242,N,00832.229,E,000.0,091.9,110916,000.2,E*76
$POSMGYR,-2865,-231,-395*4A
$POSMACC,-140,13632,11040*75
$SDDBT,7.08,f,2.16,M,1.18,F*34
$POSMGYR,-2883,-250,-221*4B
$POSMACC,508,12780,11120*5E
$SDDBT,7.08,f,2.16,M,1.18,F*34
$GPRMC,101935,A,4721.242,N,00832.229,E,000.0,091.9,110916,000.2,E*70
$POSMGYR,1020,449,1102*59
$POSMACC,-280,13660,9972*4C
$SDDBT,7.08,f,2.16,M,1.18,F*34
$POSMGYR,79,265,503*68
$POSMACC,-332,12992,11840*7E
$SDDBT,6.89,f,2.10,M,1.14,F*36
$GPRMC,101937,A,4721.242,N,00832.230,E,000.0,091.9,110916,000.2,E*7A
$POSMGYR,391,652,657*5F
$POSMACC,-536,13072,10588*72
$SDDBT,7.02,f,2.14,M,1.17,F*33
$POSMGYR,487,-2370,-1736*5F
$POSMACC,-300,13392,11000*78
$SDDBT,6.98,f,2.13,M,1.16,F*37
$GPRMC,101939,A,4721.242,N,00832.230,E,000.0,091.9,110916,000.2,E*74
$POSMGYR,530,-1027,1217*7B
$POSMACC,-356,13456,10768*7C
$SDDBT,6.82,f,2.08,M,1.13,F*33
$POSMGYR,2013,3596,1260*6D
$POSMACC,708,11920,10480*55
$SDDBT,6.98,f,2.13,M,1.16,F*37
$GPRMC,101941,A,4721.242,N,00832.231,E,000.0,091.9,110916,000.2,E*7A
$POSMGYR,2630,-1273,-2088*63
$POSMACC,808,12692,11928*51
$SDDBT,6.62,f,2.02,M,1.10,F*34
$POSMGYR,228,384,671*56
$POSMACC,-304,12572,10364*75
$SDDBT,6.82,f,2.08,M,1.13,F*33
$GPRMC,101943,A,4721.242,N,00832.231,E,000.0,091.9,110916,000.2,E*78
$POSMGYR,186,-2485,-725*65
$POSMACC,-436,13464,8808*4C
$SDDBT,6.69,f,2.04,M,1.11,F*38
$POSMGYR,-861,-380,-1908*48
$POSMACC,952,12120,11144*53
$SDDBT,6.69,f,2.04,M,1.11,F*38
$GPRMC,101945,A,4721.242,N,00832.232,E,000.0,091.9,110916,000.2,E*7D
$POSMGYR,746,6982,5169*5A
$POSMACC,376,13340,9752*62
$SDDBT,6.69,f,2.04,M,1.11,F*38
$POSMGYR,-196,672,2321*43
$POSMACC,-748,12596,9956*40
$SDDBT,6.82,f,2.08,M,1.13,F*33
$GPRMC,101947,A,4721.242,N,00832.233,E,000.0,091.9,110916,000.2,E*7E
$POSMGYR,-3740,-8998,-9449*4C
$POSMACC,252,12600,10308*56
$SDDBT,6.89,f,2.10,M,1.14,F*36
$POSMGYR,-1001,1015,1268*44
$POSMACC,208,12444,11428*5F
$SDDBT,6.43,f,1.96,M,1.07,F*3F
$GPRMC,101949,A,4721.243,N,00832.233,E,000.0,091.9,110916,000.2,E*71
$POSMGYR,947,5079,1604*53
$POSMACC,232,11852,10924*5E
$SDDBT,6.79,f,2.07,M,1.13,F*38
$POSMGYR,1560,2016,-1065*49
$POSMACC,576,13424,10576*5D
$SDDBT,6.62,f,2.02,M,1.10,F*34
$GPRMC,101951,A,4721.243,N,00832.234,E,000.0,091.9,110916,000.2,E*7F
$POSMGYR,1448,-2083,-1853*6E
$POSMACC,664,13932,10524*50
$SDDBT,6.69,f,2.04,M,1.11,F*38
$POSMGYR,11,2337,1028*6F
$POSMACC,108,14172,10588*50
$SDDBT,7.67,f,2.34,M,1.27,F*31
$GPRMC,101953,A,4721.243,N,00832.235,E,000.0,091.9,110916,000.2,E*7C
$POSMGYR,-1247,-1261,-497*72
$POSMACC,-580,14836,11556*72
$SDDBT,7.77,f,2.37,M,1.29,F*3D
$POSMGYR,-1452,88,-1251*64
$POSMACC,-92,14544,10716*4B
$SDDBT,6.52,f,1.99,M,1.08,F*3F
$GPRMC,101955,A,4721.243,N,00832.235,E,000.0,091.9,110916,000.2,E*7A
$POSMGYR,-3039,-538,476*63
$POSMACC,-136,12672,10896*73
$SDDBT,6.79,f,2.07,M,1.13,F*38
$POSMGYR,-3062,1801,-376*5C
$POSMACC,-56,14124,9932*71
$SDDBT,6.39,f,1.95,M,1.06,F*30
$GPRMC,101957,A,4721.243,N,00832.236,E,000.0,091.9,110916,000.2,E*7B
$POSMGYR,-809,1751,-1193*58
$POSMACC,-216,11512,11144*73
$SDDBT,6.59,f,2.01,M,1.09,F*37
$POSMGYR,-6518,-1738,-4562*4E
$POSMACC,552,12508,8044*68
$SDDBT,6.59,f,2.01,M,1.09,F*37
$GPRMC,101959,A,4721.243,N,00832.237,E,000.0,091.9,110916,000.2,E*74
$POSMGYR,-1048,782,-2527*53
$POSMACC,580,12920,12332*58
$SDDBT,6.49,f,1.98,M,1.08,F*34
$POSMGYR,445,6823,4636*5C
$POSMACC,184,14592,9596*69
$SDDBT,6.49,f,1.98,M,1.08,F*34
$GPRMC,102001,A,4721.243,N,00832.237,E,000.0,091.9,110916,000.2,E*73
$POSMGYR,1416,1593,346*5C
$POSMACC,380,12804,12180*52
$SDDBT,6.33,f,1.93,M,1.05,F*3F
$POSMGYR,1061,-3199,-5254*63
$POSMACC,2376,13940,10776*64
$SDDBT,6.33,f,1.93,M,1.05,F*3F
$GPRMC,102003,A,4721.243,N,00832.238,E,000.0,091.9,110916,000.2,E*7E
$POSMGYR,-250,1884,2685*77
$POSMACC,-52,12356,11924*4A
$SDDBT,6.49,f,1.98,M,1.08,F*34
$POSMGYR,475,-3368,-3233*58
$POSMACC,648,13968,12512*56
$SDDBT,7.90,f,2.41,M,1.31,F*3C
$GPRMC,102005,A,4721.243,N,00832.239,E,000.0,091.9,110916,000.2,E*79
$POSMGYR,-3310,1270,720*7C
$POSMACC,-248,12312,9900*4C
$SDDBT,6.52,f,1.99,M,1.08,F*3F
$POSMGYR,-117,-2045,-454*4D
$POSMACC,292,13132,10628*5A
$SDDBT,6.39,f,1.95,M,1.06,F*30
$GPRMC,102007,A,4721.243,N,00832.239,E,000.0,091.9,110916,000.2,E*7B
$POSMGYR,-472,1064,-437*63
$POSMACC,-1248,11792,10876*4A
$SDDBT,6.49,f,1.98,M,1.08,F*34
$POSMGYR,-1687,-1225,-79*4E
$POSMACC,792,12800,11904*56
$SDDBT,6.43,f,1.96,M,1.07,F*3F
$GPRMC,102009,A,4721.243,N,00832.240,E,000.0,091.9,110916,000.2,E*7B
$POSMGYR,-2421,683,554*40
$POSMACC,-816,12208,10572*76
$SDDBT,6.43,f,1.96,M,1.07,F*3F
$POSMGYR,-1349,-1166,-1881*43
$POSMACC,204,12464,10084*52
$SDDBT,6.33,f,1.93,M,1.05,F*3F
$GPRMC,102011,A,4721.243,N,00832.241,E,000.0,091.9,110916,000.2,E*73
$POSMGYR,-3237,2429,-2383*63
$POSMACC,836,11416,10628*5F
$SDDBT,6.39,f,1.95,M,1.06,F*30
$POSMGYR,-2122,736,-2627*51
$POSMACC,-672,14144,9212*4E
$SDDBT,5.74,f,1.75,M,0.95,F*3F
$GPRMC,102013,A,4721.243,N,00832.241,E,000.0,091.9,110916,000.2,E*71
$POSMGYR,1420,2135,-724*7F
$POSMACC,848,12828,10912*52
$SDDBT,6.10,f,1.86,M,1.01,F*3E
$POSMGYR,-348,3603,-3103*59
$POSMACC,-72,12952,11040*4D
$SDDBT,5.70,f,1.74,M,0.95,F*3A
$GPRMC,102015,A,4721.244,N,00832.242,E,000.0,091.9,110916,000.2,E*73
$POSMGYR,-1469,-899,1308*59
$POSMACC,-560,11292,10612*7F
$SDDBT,6.30,f,1.92,M,1.05,F*3D
$POSMGYR,-2484,-2314,730*5B
$POSMACC,1496,12700,10020*61
$SDDBT,5.93,f,1.81,M,0.98,F*30
$GPRMC,102017,A,4721.244,N,00832.242,E,000.0,091.9,110916,000.2,E*71
$POSMGYR,-3035,-139,1988*57
$POSMACC,-140,13284,10348*76
$SDDBT,6.10,f,1.86,M,1.01,F*3E
$POSMGYR,548,645,123*5F
$POSMACC,740,13440,11528*52
$SDDBT,6.13,f,1.87,M,1.02,F*3F
$GPRMC,102019,A,4721.244,N,00832.243,E,000.0,091.9,110916,000.2,E*7E
$POSMGYR,1046,550,-481*42
$POSMACC,-320,13592,11624*7C
$SDDBT,6.30,f,1.92,M,1.05,F*3D
$POSMGYR,-748,-807,-1978*4F
$POSMACC,1312,13860,11588*64
$SDDBT,6.03,f,1.84,M,1.00,F*3F
$GPRMC,102021,A,4721.244,N,00832.244,E,000.0,091.9,110916,000.2,E*72
$POSMGYR,-2774,2690,-832*53
$POSMACC,-604,11516,10276*73
$SDDBT,6.23,f,1.90,M,1.03,F*3B
$POSMGYR,-294,-1030,-2068*7D
$POSMACC,-332,12620,11016*73
$SDDBT,5.93,f,1.81,M,0.98,F*30
$GPRMC,102023,A,4721.244,N,00832.244,E,000.0,091.9,110916,000.2,E*70
$POSMGYR,2703,-77,426*7A
$POSMACC,-664,13640,11384*7A
$SDDBT,6.03,f,1.84,M,1.00,F*3F
$POSMGYR,848,664,-390*76
$POSMACC,12,13192,12460*66
$SDDBT,5.84,f,1.78,M,0.97,F*3F
$GPRMC,102025,A,4721.244,N,00832.245,E,000.0,091.9,110916,000.2,E*77
$POSMGYR,570,-2335,2983*79
$POSMACC,-1108,12052,11252*48
$SDDBT,5.84,f,1.78,M,0.97,F*3F
$POSMGYR,-2081,-1694,-1131*4F
$POSMACC,1680,12584,10536*68
$SDDBT,5.90,f,1.80,M,0.98,F*32
$GPRMC,102027,A,4721.244,N,00832.246,E,000.0,091.9,110916,000.2,E*76
$POSMGYR,-2536,2914,-1708*63
$POSMACC,-152,12804,11060*7E
$SDDBT,5.54,f,1.69,M,0.92,F*37
$POSMGYR,717,-2185,-670*6F
$POSMACC,72,12048,11464*60
$SDDBT,5.11,f,1.56,M,0.85,F*3C
$GPRMC,102029,A,4721.244,N,00832.246,E,000.0,091.9,110916,000.2,E*78
$POSMGYR,1834,-266,1456*76
$POSMACC,616,13532,12048*54
$SDDBT,5.41,f,1.65,M,0.90,F*3D
$POSMGYR,172,190,-1001*40
$POSMACC,376,13916,11668*5A
$SDDBT,5.41,f,1.65,M,0.90,F*3D
$GPRMC,102031,A,4721.244,N,00832.247,E,000.0,091.9,110916,000.2,E*70
$POSMGYR,-982,654,418*75
$POSMACC,-612,12200,10820*7E
$SDDBT,5.15,f,1.57,M,0.85,F*39
$POSMGYR,-1121,-1040,-1091*43
$POSMACC,88,11928,11252*6A
$SDDBT,4.95,f,1.51,M,0.82,F*31
$GPRMC,102033,A,4721.244,N,00832.248,E,000.0,091.9,110916,000.2,E*7D
$POSMGYR,-442,1845,762*45
$POSMACC,-112,13016,10880*77
$SDDBT,5.31,f,1.62,M,0.88,F*34
$POSMGYR,-2934,-5285,-2374*48
$POSMACC,4,12956,10240*56
$SDDBT,5.05,f,1.54,M,0.84,F*3A
$GPRMC,102035,A,4721.244,N,00832.248,E,000.0,091.9,110916,000.2,E*7B
$POSMGYR,-739,-117,-415*76
$POSMACC,548,13208,10756*58
$SDDBT,5.51,f,1.68,M,0.91,F*30
$POSMGYR,-1505,6488,5586*41
$POSMACC,-56,13980,10548*49
$SDDBT,5.41,f,1.65,M,0.90,F*3D
$GPRMC,102037,A,4721.245,N,00832.249,E,000.0,091.9,110916,000.2,E*79
$POSMGYR,445,-977,3201*40
$POSMACC,-568,13960,10960*79
$SDDBT,5.44,f,1.66,M,0.90,F*3B
$POSMGYR,-1530,-10984,-7673*7A
$POSMACC,1380,13600,8568*51
$SDDBT,5.54,f,1.69,M,0.92,F*37
$GPRMC,102039,A,4721.245,N,00832.250,E,000.0,091.9,110916,000.2,E*7F
$POSMGYR,465,-659,761*71
$POSMACC,-1016,12388,11064*45
$SDDBT,5.41,f,1.65,M,0.90,F*3D
$POSMGYR,-1024,8038,6372*48
$POSMACC,332,13296,9980*69
$SDDBT,5.54,f,1.69,M,0.92,F*37
$GPRMC,102041,A,4721.245,N,00832.250,E,000.0,091.9,110916,000.2,E*70
$POSMGYR,1791,780,2662*50
$POSMACC,-124,13300,12048*78
$SDDBT,5.21,f,1.59,M,0.86,F*33
$POSMGYR,1473,-7599,-9325*6F
$POSMACC,624,14432,10832*54
$SDDBT,5.41,f,1.65,M,0.90,F*3D
$GPRMC,102043,A,4721.245,N,00832.251,E,000.0,091.9,110916,000.2,E*73
$POSMGYR,-2436,2944,-1647*6D
$POSMACC,276,13788,11464*5C
$SDDBT,5.11,f,1.56,M,0.85,F*3C
$POSMGYR,-695,3351,1382*7A
$POSMACC,48,12108,10972*67
$SDDBT,4.75,f,1.45,M,0.79,F*3E
$GPRMC,102045,A,4721.245,N,00832.252,E,000.0,091.9,110916,000.2,E*76
$POSMGYR,2200,-911,-1180*50
$POSMACC,-604,13424,11236*74
$SDDBT,4.52,f,1.38,M,0.75,F*3D
$POSMGYR,3,-743,-580*5F
$POSMACC,156,12800,10484*5C
$SDDBT,3.97,f,1.21,M,0.66,F*39
$GPRMC,102047,A,4721.245,N,00832.253,E,000.0,091.9,110916,000.2,E*75
$POSMGYR,-1302,1535,-883*50
$POSMACC,-428,13304,11052*7D
$SDDBT,4.23,f,1.29,M,0.70,F*3E
$POSMGYR,1184,2288,2314*69
$POSMACC,-512,14612,11076*76
$SDDBT,4.95,f,1.51,M,0.82,F*31
$GPRMC,102049,A,4721.245,N,00832.253,E,000.9,091.9,110916,000.2,E*72
$POSMGYR,81,-1230,-2261*6F
$POSMACC,-112,13424,11612*76
$SDDBT,5.93,f,1.81,M,0.98,F*30
$POSMGYR,-3514,2135,-2205*62
$POSMACC,988,12528,10368*55
$SDDBT,6.52,f,1.99,M,1.08,F*3F
$GPRMC,102051,A,4721.245,N,00832.254,E,000.9,091.9,110916,000.2,E*7C
$POSMGYR,119,3380,-707*4D
$POSMACC,-528,11496,11872*78
$SDDBT,6.23,f,1.90,M,1.03,F*3B
$POSMGYR,2100,-1320,-3066*61
$POSMACC,540,13204,11340*5E
$SDDBT,6.13,f,1.87,M,1.02,F*3F
$GPRMC,102053,A,4721.246,N,00832.255,E,000.9,091.9,110916,000.2,E*7C
$POSMGYR,-3,9178,4869*7B
$POSMACC,1264,12524,10448*64
$SDDBT,6.23,f,1.90,M,1.03,F*3B
$POSMGYR,-922,651,-469*51
$POSMACC,484,13492,10944*51
$SDDBT,6.33,f,1.93,M,1.05,F*3F
$GPRMC,102055,A,4721.246,N,00832.256,E,000.9,091.9,110916,000.2,E*79
$POSMGYR,-1258,-738,-5959*7E
$POSMACC,-68,14676,10528*43
$SDDBT,6.39,f,1.95,M,1.06,F*30
$POSMGYR,1032,3999,1938*68
$POSMACC,-704,13400,12400*73
$SDDBT,6.03,f,1.84,M,1.00,F*3F
$GPRMC,102057,A,4721.246,N,00832.256,E,000.9,091.9,110916,000.2,E*7B
$POSMGYR,-285,1520,-1051*5D
$POSMACC,-572,13740,10904*7C
